{"Lanzarote": {"data": [{"latitude": 29.01, "longitude": -13.641, "type": "venue", "name": "Lanzarote", "number": null, "postal_code": null, "street": null, "confidence": 1, "region": "Las Palmas", "region_code": "CN", "county": null, "locality": null, "administrative_area": "San Bartolom\u00e9", "neighbourhood": null, "country": "Spain", "country_code": "ESP", "continent": "Europe", "label": "Lanzarote, San Bartolom\u00e9, CN, Spain"}, {"latitude": 29.00365, "longitude": -13.487224, "type": "venue", "name": "Aquarium Lanzarote", "number": null, "postal_code": null, "street": null, "confidence": 1, "region": "Las Palmas", "region_code": "CN", "county": null, "locality": "Los Zocos", "administrative_area": "Teguise", "neighbourhood": null, "country": "Spain", "country_code": "ESP", "continent": "Europe", "label": "Aquarium Lanzarote, Los Zocos, CN, Spain"}, {"latitude": 28.933901, "longitude": -13.619824, "type": "venue", "name": "Nautilus Lanzarote", "number": "5", "postal_code": "35510", "street": "Gramillo", "confidence": 1, "region": "Las Palmas", "region_code": "CN", "county": null, "locality": "Vohilava", "administrative_area": "T\u00edas", "neighbourhood": null, "country": "Spain", "country_code": "ESP", "continent": "Europe", "label": "Nautilus Lanzarote, Vohilava, CN, Spain"}, {"latitude": 29.132104, "longitude": -13.460666, "type": "venue", "name": "Northdiving Lanzarote", "number": "33", "postal_code": "35542", "street": "Calle La Garita", "confidence": 1, "region": "Las Palmas", "region_code": "CN", "county": null, "locality": null, "administrative_area": "Har\u00eda", "neighbourhood": null, "country": "Spain", "country_code": "ESP", "continent": "Europe", "label": "Northdiving Lanzarote, Har\u00eda, CN, Spain"}, {"latitude": 28.955456, "longitude": -13.587477, "type": "venue", "name": "Auszeit Lanzarote", "number": "64", "postal_code": "35509", "street": "Calle Princesa Ico", "confidence": 1, "region": "Las Palmas", "region_code": "CN", "county": null, "locality": null, "administrative_area": "San Bartolom\u00e9", "neighbourhood": null, "country": "Spain", "country_code": "ESP", "continent": "Europe", "label": "Auszeit Lanzarote, San Bartolom\u00e9, CN, Spain"}, {"latitude": 28.994325, "longitude": -13.495468, "type": "venue", "name": "eBike-Lanzarote", "number": "3", "postal_code": "35508", "street": "Calle de La Rosa", "confidence": 1, "region": "Las Palmas", "region_code": "CN", "county": null, "locality": null, "administrative_area": "Teguise", "neighbourhood": null, "country": "Spain", "country_code": "ESP", "continent": "Europe", "label": "eBike-Lanzarote, Teguise, CN, Spain"}, {"latitude": 28.857413, "longitude": -13.811165, "type": "venue", "name": "Volc\u00e1n Lanzarote", "number": null, "postal_code": null, "street": null, "confidence": 1, "region": "Las Palmas", "region_code": "CN", "county": null, "locality": "Urbanizaci\u00f3n San Marcial de Rubic\u00f3n", "administrative_area": "Yaiza", "neighbourhood": null, "country": "Spain", "country_code": "ESP", "continent": "Europe", "label": "Volc\u00e1n Lanzarote, Urbanizaci\u00f3n San Marcial de Rubic\u00f3n, CN, Spain"}, {"latitude": 28.925874, "longitude": -13.640714, "type": "venue", "name": "Lanzarote Village", "number": null, "postal_code": null, "street": null, "confidence": 1, "region": "Las Palmas", "region_code": "CN", "county": null, "locality": "Vohilava", "administrative_area": "T\u00edas", "neighbourhood": null, "country": "Spain", "country_code": "ESP", "continent": "Europe", "label": "Lanzarote Village, Vohilava, CN, Spain"}, {"latitude": 28.931446, "longitude": -13.623589, "type": "venue", "name": "Sol Lanzarote", "number": null, "postal_code": null, "street": "Grama", "confidence": 1, "region": "Las Palmas", "region_code": "CN", "county": null, "locality": "Vohilava", "administrative_area": "T\u00edas", "neighbourhood": null, "country": "Spain", "country_code": "ESP", "continent": "Europe", "label": "Sol Lanzarote, Vohilava, CN, Spain"}, {"latitude": 28.95863, "longitude": -13.550529, "type": "venue", "name": "Musical Lanzarote", "number": null, "postal_code": null, "street": null, "confidence": 1, "region": "Las Palmas", "region_code": "CN", "county": null, "locality": "Arrecife", "administrative_area": "Arrecife", "neighbourhood": null, "country": "Spain", "country_code": "ESP", "continent": "Europe", "label": "Musical Lanzarote, Arrecife, CN, Spain"}]}, "Catania": {"data": [{"latitude": 37.516282, "longitude": 15.076072, "type": "locality", "name": "Catania", "number": null, "postal_code": null, "street": null, "confidence": 1, "region": "Catania", "region_code": "CT", "county": null, "locality": "Catania", "administrative_area": "Catania", "neighbourhood": null, "country": "Italy", "country_code": "ITA", "continent": "Europe", "label": "Catania, CT, Italy"}, {"latitude": -9.16667, "longitude": 21.15, "type": "locality", "name": "Satechipanda", "number": null, "postal_code": null, "street": null, "confidence": 1, "region": "Lunda Sul", "region_code": "LS", "county": "Saurimo", "locality": "Satechipanda", "administrative_area": null, "neighbourhood": null, "country": "Angola", "country_code": "AGO", "continent": "Africa", "label": "Satechipanda, LS, Angola"}, {"latitude": 8.82007, "longitude": -74.9101, "type": "locality", "name": "Catania", "number": null, "postal_code": null, "street": null, "confidence": 1, "region": "Sucre", "region_code": "SU", "county": "San Benito Abad", "locality": "Catania", "administrative_area": null, "neighbourhood": null, "country": "Colombia", "country_code": "COL", "continent": "South America", "label": "Catania, SU, Colombia"}]}, "Krakow": {"data": [{"latitude": 50.052652, "longitude": 19.987345, "type": "locality", "name": "Krakow", "number": null, "postal_code": null, "street": null, "confidence": 1, "region": "Lesser Poland Voivodeship", "region_code": "MA", "county": "Krak\u00f3w", "locality": "Krakow", "administrative_area": "Krak\u00f3w", "neighbourhood": null, "country": "Poland", "country_code": "POL", "continent": "Europe", "label": "Krakow, MA, Poland"}, {"latitude": 50.164159, "longitude": 19.7495, "type": "county", "name": "Krak\u00f3w", "number": null, "postal_code": null, "street": null, "confidence": 0.4, "region": "Lesser Poland Voivodeship", "region_code": "MA", "county": "Krak\u00f3w", "locality": null, "administrative_area": null, "neighbourhood": null, "country": "Poland", "country_code": "POL", "continent": "Europe", "label": "Krak\u00f3w, MA, Poland"}, {"latitude": 41.39474, "longitude": -97.75255, "type": "locality", "name": "Krakow", "number": null, "postal_code": null, "street": null, "confidence": 1, "region": "Nebraska", "region_code": "NE", "county": "Nance County", "locality": "Krakow", "administrative_area": "Prairie Creek Township", "neighbourhood": null, "country": "United States", "country_code": "USA", "continent": "North America", "label": "Krakow, NE, USA"}, {"latitude": 38.49755, "longitude": -91.0457, "type": "locality", "name": "Krakow", "number": null, "postal_code": null, "street": null, "confidence": 1, "region": "Missouri", "region_code": "MO", "county": "Franklin County", "locality": "Krakow", "administrative_area": "Union Township", "neighbourhood": null, "country": "United States", "country_code": "USA", "continent": "North America", "label": "Krakow, MO, USA"}, {"latitude": 53.74455, "longitude": -112.4352, "type": "locality", "name": "Krakow", "number": null, "postal_code": null, "street": null, "confidence": 1, "region": "Alberta", "region_code": "AB", "county": "Lamont", "locality": "Krakow", "administrative_area": null, "neighbourhood": null, "country": "Canada", "country_code": "CAN", "continent": "North America", "label": "Krakow, AB, Canada"}, {"latitude": 51.72921, "longitude": 18.51595, "type": "locality", "name": "Kr\u0105k\u00f3w", "number": null, "postal_code": null, "street": null, "confidence": 1, "region": "\u0141\u00f3d\u017a Voivodeship", "region_code": "LD", "county": "Sieradz", "locality": "Kr\u0105k\u00f3w", "administrative_area": "Gmina Warta", "neighbourhood": null, "country": "Poland", "country_code": "POL", "continent": "Europe", "label": "Kr\u0105k\u00f3w, LD, Poland"}, {"latitude": 53.65087, "longitude": 12.267621, "type": "locality", "name": "Krakow", "number": null, "postal_code": null, "street": null, "confidence": 1, "region": "Mecklenburg-Vorpommern", "region_code": "MV", "county": "Rostock", "locality": "Krakow", "administrative_area": "Krakow am See", "neighbourhood": null, "country": "Germany", "country_code": "DEU", "continent": "Europe", "label": "Krakow, MV, Germany"}, {"latitude": 44.758521, "longitude": -88.261086, "type": "locality", "name": "Krakow", "number": null, "postal_code": null, "street": null, "confidence": 1, "region": "Wisconsin", "region_code": "WI", "county": "Shawano County", "locality": "Krakow", "administrative_area": "Angelica", "neighbourhood": null, "country": "United States", "country_code": "USA", "continent": "North America", "label": "Krakow, WI, USA"}, {"latitude": 45.279551, "longitude": -83.578535, "type": "localadmin", "name": "Krakow Township", "number": null, "postal_code": null, "street": null, "confidence": 1, "region": "Michigan", "region_code": "MI", "county": "Presque Isle County", "locality": null, "administrative_area": "Krakow Township", "neighbourhood": null, "country": "United States", "country_code": "USA", "continent": "North America", "label": "Krakow Township, MI, USA"}, {"latitude": 54.12372, "longitude": 12.78276, "type": "neighbourhood", "name": "Krakow", "number": null, "postal_code": null, "street": null, "confidence": 0.6, "region": "Mecklenburg-Vorpommern", "region_code": "MV", "county": "Vorpommern-Rugen", "locality": "Drechow", "administrative_area": "Recknitz-Trebeltal", "neighbourhood": "Krakow", "country": "Germany", "country_code": "DEU", "continent": "Europe", "label": "Krakow, Drechow, MV, Germany"}]}, "Brussels": {"data": [{"latitude": 50.843183, "longitude": 4.371755, "type": "locality", "name": "Brussel", "number": null, "postal_code": null, "street": null, "confidence": 1, "region": "Brussels", "region_code": "BU", "county": null, "locality": null, "administrative_area": null, "neighbourhood": null, "country": "Belgium", "country_code": "BEL", "continent": "Europe", "label": "Brussel, BU, Belgium"}, {"latitude": 50.901142, "longitude": 4.458387, "type": "locality", "name": "Brussels", "number": null, "postal_code": null, "street": null, "confidence": 1, "region": "Vlaams-Brabant", "region_code": "VB", "county": "Halle-Vilvoorde", "locality": "Brussels", "administrative_area": "Machelen", "neighbourhood": null, "country": "Belgium", "country_code": "BEL", "continent": "Europe", "label": "Brussels, VB, Belgium"}, {"latitude": 50.808226, "longitude": 4.473994, "type": "locality", "name": "Brussels", "number": null, "postal_code": null, "street": null, "confidence": 1, "region": "Vlaams-Brabant", "region_code": "VB", "county": "Leuven", "locality": "Brussels", "administrative_area": "Tervuren", "neighbourhood": null, "country": "Belgium", "country_code": "BEL", "continent": "Europe", "label": "Brussels, VB, Belgium"}, {"latitude": 50.792508, "longitude": 4.288073, "type": "locality", "name": "Brussels", "number": null, "postal_code": null, "street": null, "confidence": 1, "region": "Vlaams-Brabant", "region_code": "VB", "county": "Halle-Vilvoorde", "locality": "Brussels", "administrative_area": "Sint-Pieters-Leeuw", "neighbourhood": null, "country": "Belgium", "country_code": "BEL", "continent": "Europe", "label": "Brussels, VB, Belgium"}, {"latitude": 50.845985, "longitude": 4.273769, "type": "locality", "name": "Brussels", "number": null, "postal_code": null, "street": null, "confidence": 1, "region": "Vlaams-Brabant", "region_code": "VB", "county": "Halle-Vilvoorde", "locality": "Brussels", "administrative_area": "Dilbeek", "neighbourhood": null, "country": "Belgium", "country_code": "BEL", "continent": "Europe", "label": "Brussels, VB, Belgium"}, {"latitude": 50.733183, "longitude": 4.436117, "type": "locality", "name": "Brussels", "number": null, "postal_code": null, "street": null, "confidence": 1, "region": "Brabant wallon", "region_code": "BW", "county": "Nivelles", "locality": "Brussels", "administrative_area": null, "neighbourhood": null, "country": "Belgium", "country_code": "BEL", "continent": "Europe", "label": "Brussels, BW, Belgium"}, {"latitude": 50.835819, "longitude": 4.368897, "type": "region", "name": "Brussels", "number": null, "postal_code": null, "street": null, "confidence": 0.3, "region": "Brussels", "region_code": "BU", "county": null, "locality": null, "administrative_area": null, "neighbourhood": null, "country": "Belgium", "country_code": "BEL", "continent": "Europe", "label": "Brussels, Belgium"}, {"latitude": 39.05088, "longitude": -90.87902, "type": "locality", "name": "Brussells", "number": null, "postal_code": null, "street": null, "confidence": 1, "region": "Missouri", "region_code": "MO", "county": "Lincoln County", "locality": "Brussells", "administrative_area": "Snow Hill Township", "neighbourhood": null, "country": "United States", "country_code": "USA", "continent": "North America", "label": "Brussells, MO, USA"}, {"latitude": 43.741346, "longitude": -81.251556, "type": "locality", "name": "Brussels", "number": null, "postal_code": null, "street": null, "confidence": 1, "region": "Ontario", "region_code": "ON", "county": "Huron", "locality": "Brussels", "administrative_area": null, "neighbourhood": null, "country": "Canada", "country_code": "CAN", "continent": "North America", "label": "Brussels, ON, Canada"}, {"latitude": 50.782971, "longitude": 4.453817, "type": "locality", "name": "Brussels-Capital Region", "number": null, "postal_code": null, "street": null, "confidence": 1, "region": "Vlaams-Brabant", "region_code": "VB", "county": "Halle-Vilvoorde", "locality": "Brussels-Capital Region", "administrative_area": "Overijse", "neighbourhood": null, "country": "Belgium", "country_code": "BEL", "continent": "Europe", "label": "Brussels-Capital Region, VB, Belgium"}]}, "Malmo": {"data": [{"latitude": 55.59438, "longitude": 13.029953, "type": "locality", "name": "Malmo", "number": null, "postal_code": null, "street": null, "confidence": 1, "region": "Scania", "region_code": "SN", "county": "Malmo", "locality": "Malmo", "administrative_area": "Sofielund", "neighbourhood": null, "country": "Sweden", "country_code": "SWE", "continent": "Europe", "label": "Malmo, SN, Sweden"}, {"latitude": 52.78343, "longitude": -113.21867, "type": "locality", "name": "Malmo", "number": null, "postal_code": null, "street": null, "confidence": 1, "region": "Alberta", "region_code": "AB", "county": "Wetaskiwin No. 10", "locality": "Malmo", "administrative_area": null, "neighbourhood": null, "country": "Canada", "country_code": "CAN", "continent": "North America", "label": "Malmo, AB, Canada"}, {"latitude": 11.38872, "longitude": 8.29018, "type": "locality", "name": "Malmo", "number": null, "postal_code": null, "street": null, "confidence": 1, "region": "Kano", "region_code": "KN", "county": "Bebeji", "locality": "Malmo", "administrative_area": null, "neighbourhood": null, "country": "Nigeria", "country_code": "NGA", "continent": "Africa", "label": "Malmo, KN, Nigeria"}, {"latitude": 11.99226, "longitude": 7.22115, "type": "locality", "name": "Malmo", "number": null, "postal_code": null, "street": null, "confidence": 1, "region": "Katsina", "region_code": "KT", "county": "Kankara", "locality": "Malmo", "administrative_area": null, "neighbourhood": null, "country": "Nigeria", "country_code": "NGA", "continent": "Africa", "label": "Malmo, KT, Nigeria"}, {"latitude": 57.81667, "longitude": 16.7, "type": "locality", "name": "Malmo", "number": null, "postal_code": null, "street": null, "confidence": 1, "region": "Kalmar", "region_code": "KA", "county": "Vastervik", "locality": "Malmo", "administrative_area": "Loftahammar", "neighbourhood": null, "country": "Sweden", "country_code": "SWE", "continent": "Europe", "label": "Malmo, KA, Sweden"}, {"latitude": 34.266, "longitude": -78.09888, "type": "locality", "name": "Malmo", "number": null, "postal_code": null, "street": null, "confidence": 1, "region": "North Carolina", "region_code": "NC", "county": "Brunswick County", "locality": "Malmo", "administrative_area": null, "neighbourhood": null, "country": "United States", "country_code": "USA", "continent": "North America", "label": "Malmo, NC, USA"}, {"latitude": 46.33384, "longitude": -93.51941, "type": "locality", "name": "Malmo", "number": null, "postal_code": null, "street": null, "confidence": 1, "region": "Minnesota", "region_code": "MN", "county": "Aitkin County", "locality": "Malmo", "administrative_area": "Lakeside Township", "neighbourhood": null, "country": "United States", "country_code": "USA", "continent": "North America", "label": "Malmo, MN, USA"}, {"latitude": 41.266465, "longitude": -96.720922, "type": "locality", "name": "Malmo", "number": null, "postal_code": null, "street": null, "confidence": 1, "region": "Nebraska", "region_code": "NE", "county": "Saunders County", "locality": "Malmo", "administrative_area": "Mariposa Township", "neighbourhood": null, "country": "United States", "country_code": "USA", "continent": "North America", "label": "Malmo, NE, USA"}, {"latitude": 46.376047, "longitude": -93.494691, "type": "localadmin", "name": "Malmo Township", "number": null, "postal_code": null, "street": null, "confidence": 1, "region": "Minnesota", "region_code": "MN", "county": "Aitkin County", "locality": null, "administrative_area": "Malmo Township", "neighbourhood": null, "country": "United States", "country_code": "USA", "continent": "North America", "label": "Malmo Township, MN, USA"}]}, "Manchester": {"data": [{"latitude": 18.037405, "longitude": -77.502783, "type": "region", "name": "Manchester", "number": null, "postal_code": null, "street": null, "confidence": 0.3, "region": "Manchester", "region_code": "MA", "county": null, "locality": null, "administrative_area": null, "neighbourhood": null, "country": "Jamaica", "country_code": "JAM", "continent": "North America", "label": "Manchester, Jamaica"}, {"latitude": 53.471419, "longitude": -2.244834, "type": "locality", "name": "Manchester", "number": null, "postal_code": null, "street": null, "confidence": 1, "region": "Greater Manchester", "region_code": null, "county": "Manchester", "locality": "Manchester", "administrative_area": null, "neighbourhood": null, "country": "United Kingdom", "country_code": "GBR", "continent": "Europe", "label": "Manchester, England, United Kingdom"}, {"latitude": 42.974874, "longitude": -71.428478, "type": "locality", "name": "Manchester", "number": null, "postal_code": null, "street": null, "confidence": 1, "region": "New Hampshire", "region_code": "NH", "county": "Hillsborough County", "locality": "Manchester", "administrative_area": "Manchester", "neighbourhood": null, "country": "United States", "country_code": "USA", "continent": "North America", "label": "Manchester, NH, USA"}, {"latitude": 41.77967, "longitude": -72.518493, "type": "locality", "name": "Manchester", "number": null, "postal_code": null, "street": null, "confidence": 1, "region": "Connecticut", "region_code": "CT", "county": "Hartford County", "locality": "Manchester", "administrative_area": "Manchester", "neighbourhood": null, "country": "United States", "country_code": "USA", "continent": "North America", "label": "Manchester, CT, USA"}, {"latitude": 38.580732, "longitude": -90.511805, "type": "locality", "name": "Manchester", "number": null, "postal_code": null, "street": null, "confidence": 1, "region": "Missouri", "region_code": "MO", "county": "St. Louis County", "locality": "Manchester", "administrative_area": "Queeny Township", "neighbourhood": null, "country": "United States", "country_code": "USA", "continent": "North America", "label": "Manchester, MO, USA"}, {"latitude": 33.639297, "longitude": -84.459095, "type": "locality", "name": "College Park", "number": null, "postal_code": null, "street": null, "confidence": 1, "region": "Georgia", "region_code": "GA", "county": "Fulton County", "locality": "College Park", "administrative_area": null, "neighbourhood": null, "country": "United States", "country_code": "USA", "continent": "North America", "label": "College Park, GA, USA"}, {"latitude": 35.464396, "longitude": -86.07756, "type": "locality", "name": "Manchester", "number": null, "postal_code": null, "street": null, "confidence": 1, "region": "Tennessee", "region_code": "TN", "county": "Coffee County", "locality": "Manchester", "administrative_area": null, "neighbourhood": null, "country": "United States", "country_code": "USA", "continent": "North America", "label": "Manchester, TN, USA"}, {"latitude": 41.002998, "longitude": -85.77464, "type": "locality", "name": "North Manchester", "number": null, "postal_code": null, "street": null, "confidence": 1, "region": "Indiana", "region_code": "IN", "county": "Wabash County", "locality": "North Manchester", "administrative_area": "Chester Township", "neighbourhood": null, "country": "United States", "country_code": "USA", "continent": "North America", "label": "North Manchester, IN, USA"}, {"latitude": 47.550912, "longitude": -122.541825, "type": "locality", "name": "Manchester", "number": null, "postal_code": null, "street": null, "confidence": 1, "region": "Washington", "region_code": "WA", "county": "Kitsap County", "locality": "Manchester", "administrative_area": null, "neighbourhood": null, "country": "United States", "country_code": "USA", "continent": "North America", "label": "Manchester, WA, USA"}, {"latitude": 42.485777, "longitude": -91.455363, "type": "locality", "name": "Manchester", "number": null, "postal_code": null, "street": null, "confidence": 1, "region": "Iowa", "region_code": "IA", "county": "Delaware County", "locality": "Manchester", "administrative_area": null, "neighbourhood": null, "country": "United States", "country_code": "USA", "continent": "North America", "label": "Manchester, IA, USA"}]}, "Marrakech": {"data": [{"latitude": 31.63416, "longitude": -7.99994, "type": "locality", "name": "Marrakech", "number": null, "postal_code": null, "street": null, "confidence": 1, "region": "Marrakech - Tensift - Al Haouz", "region_code": "MK", "county": "Marrakech", "locality": "Marrakech", "administrative_area": null, "neighbourhood": null, "country": "Morocco", "country_code": "MAR", "continent": "Africa", "label": "Marrakech, MK, Morocco"}, {"latitude": 31.650937, "longitude": -7.922582, "type": "region", "name": "Marrakech - Tensift - Al Haouz", "number": null, "postal_code": null, "street": null, "confidence": 0.3, "region": "Marrakech - Tensift - Al Haouz", "region_code": "MK", "county": null, "locality": null, "administrative_area": null, "neighbourhood": null, "country": "Morocco", "country_code": "MAR", "continent": "Africa", "label": "Marrakech - Tensift - Al Haouz, Morocco"}]}, "Dortmund": {"data": [{"latitude": 51.507849, "longitude": 7.479247, "type": "locality", "name": "Dortmund", "number": null, "postal_code": null, "street": null, "confidence": 1, "region": "North Rhine-Westphalia", "region_code": "NW", "county": "Dortmund", "locality": "Dortmund", "administrative_area": "Dortmund", "neighbourhood": null, "country": "Germany", "country_code": "DEU", "continent": "Europe", "label": "Dortmund, NW, Germany"}]}, "Stuttgart": {"data": [{"latitude": 48.70631, "longitude": 9.11924, "type": "locality", "name": "Stuttgart", "number": null, "postal_code": null, "street": null, "confidence": 1, "region": "Baden-W\u00fcrttemberg", "region_code": "BW", "county": "Esslingen", "locality": "Stuttgart", "administrative_area": "Leinfelden-Echterdingen", "neighbourhood": null, "country": "Germany", "country_code": "DEU", "continent": "Europe", "label": "Stuttgart, BW, Germany"}, {"latitude": 34.496493, "longitude": -91.550294, "type": "locality", "name": "Stuttgart", "number": null, "postal_code": null, "street": null, "confidence": 1, "region": "Arkansas", "region_code": "AR", "county": "Arkansas County", "locality": "Stuttgart", "administrative_area": null, "neighbourhood": null, "country": "United States", "country_code": "USA", "continent": "North America", "label": "Stuttgart, AR, USA"}, {"latitude": 48.957798, "longitude": 9.566091, "type": "macrocounty", "name": "Stuttgart Government Region", "number": null, "postal_code": null, "street": null, "confidence": 0.4, "region": "Baden-W\u00fcrttemberg", "region_code": "BW", "county": null, "locality": null, "administrative_area": null, "neighbourhood": null, "country": "Germany", "country_code": "DEU", "continent": "Europe", "label": "Stuttgart Government Region, BW, Germany"}, {"latitude": 48.776467, "longitude": 9.171896, "type": "localadmin", "name": "Stuttgart", "number": null, "postal_code": null, "street": null, "confidence": 1, "region": "Baden-W\u00fcrttemberg", "region_code": "BW", "county": "Stuttgart", "locality": null, "administrative_area": "Stuttgart", "neighbourhood": null, "country": "Germany", "country_code": "DEU", "continent": "Europe", "label": "Stuttgart, BW, Germany"}, {"latitude": 39.79945, "longitude": -99.45538, "type": "locality", "name": "Stuttgart", "number": null, "postal_code": null, "street": null, "confidence": 1, "region": "Kansas", "region_code": "KS", "county": "Phillips County", "locality": "Stuttgart", "administrative_area": "Mound Township", "neighbourhood": null, "country": "United States", "country_code": "USA", "continent": "North America", "label": "Stuttgart, KS, USA"}]}, "Sofia": {"data": [{"latitude": 42.685984, "longitude": 23.326714, "type": "locality", "name": "Sofia", "number": null, "postal_code": null, "street": null, "confidence": 1, "region": "Sofiya", "region_code": "SF", "county": null, "locality": "Sofia", "administrative_area": null, "neighbourhood": null, "country": "Bulgaria", "country_code": "BGR", "continent": "Europe", "label": "Sofia, SF, Bulgaria"}, {"latitude": 42.799696, "longitude": 23.908251, "type": "region", "name": "Sofia Province", "number": null, "postal_code": null, "street": null, "confidence": 0.3, "region": "Sofia Province", "region_code": "SG", "county": null, "locality": null, "administrative_area": null, "neighbourhood": null, "country": "Bulgaria", "country_code": "BGR", "continent": "Europe", "label": "Sofia Province, Bulgaria"}, {"latitude": -15.344724, "longitude": 48.270561, "type": "region", "name": "Mahajanga", "number": null, "postal_code": null, "street": null, "confidence": 0.3, "region": "Mahajanga", "region_code": "SF", "county": null, "locality": null, "administrative_area": null, "neighbourhood": null, "country": "Madagascar", "country_code": "MDG", "continent": "Africa", "label": "Mahajanga, Madagascar"}, {"latitude": 59.310194, "longitude": 18.095819, "type": "localadmin", "name": "Stockholms Sofia", "number": null, "postal_code": null, "street": null, "confidence": 1, "region": "Stockholm", "region_code": "ST", "county": "Stockholm", "locality": null, "administrative_area": "Stockholms Sofia", "neighbourhood": null, "country": "Sweden", "country_code": "SWE", "continent": "Europe", "label": "Stockholms Sofia, ST, Sweden"}, {"latitude": 10.7538, "longitude": 4.70442, "type": "locality", "name": "Sofia", "number": null, "postal_code": null, "street": null, "confidence": 1, "region": "Niger", "region_code": "NI", "county": "Agwara", "locality": "Sofia", "administrative_area": null, "neighbourhood": null, "country": "Nigeria", "country_code": "NGA", "continent": "Africa", "label": "Sofia, NI, Nigeria"}, {"latitude": 20.31377, "longitude": -76.94513, "type": "locality", "name": "Sofia", "number": null, "postal_code": null, "street": null, "confidence": 1, "region": "Granma", "region_code": "GR", "county": "Yara", "locality": "Sofia", "administrative_area": null, "neighbourhood": null, "country": "Cuba", "country_code": "CUB", "continent": "North America", "label": "Sofia, GR, Cuba"}, {"latitude": 5.63333, "longitude": -75.06667, "type": "locality", "name": "La Sofia", "number": null, "postal_code": null, "street": null, "confidence": 1, "region": "Caldas", "region_code": "CL", "county": "Saman\u00e1", "locality": "La Sofia", "administrative_area": null, "neighbourhood": null, "country": "Colombia", "country_code": "COL", "continent": "South America", "label": "La Sofia, CL, Colombia"}, {"latitude": -21.58333, "longitude": -53.73333, "type": "locality", "name": "Santa Sofia", "number": null, "postal_code": null, "street": null, "confidence": 1, "region": "Mato Grosso Do Sul", "region_code": "MS", "county": "Nova Alvorada do Sul", "locality": "Santa Sofia", "administrative_area": null, "neighbourhood": null, "country": "Brazil", "country_code": "BRA", "continent": "South America", "label": "Santa Sofia, MS, Brazil"}, {"latitude": 27.46398, "longitude": -110.06988, "type": "locality", "name": "Sofia", "number": null, "postal_code": null, "street": null, "confidence": 1, "region": "Sonora", "region_code": "SON", "county": "Cajeme", "locality": "Sofia", "administrative_area": null, "neighbourhood": null, "country": "Mexico", "country_code": "MEX", "continent": "North America", "label": "Sofia, SON, Mexico"}, {"latitude": 21.11667, "longitude": -101.65, "type": "locality", "name": "Sofia", "number": null, "postal_code": null, "street": null, "confidence": 1, "region": "Guanajuato", "region_code": "GUA", "county": "Le\u00f3n", "locality": "Sofia", "administrative_area": null, "neighbourhood": null, "country": "Mexico", "country_code": "MEX", "continent": "North America", "label": "Sofia, GUA, Mexico"}]}, "Cologne": {"data": [{"latitude": 50.928344, "longitude": 7.002998, "type": "locality", "name": "Cologne", "number": null, "postal_code": null, "street": null, "confidence": 1, "region": "North Rhine-Westphalia", "region_code": "NW", "county": "K\u00f6ln", "locality": "Cologne", "administrative_area": "K\u00f6ln", "neighbourhood": null, "country": "Germany", "country_code": "DEU", "continent": "Europe", "label": "Cologne, NW, Germany"}, {"latitude": 45.579217, "longitude": 9.943617, "type": "locality", "name": "Cologne", "number": null, "postal_code": null, "street": null, "confidence": 1, "region": "Brescia", "region_code": "BS", "county": null, "locality": "Cologne", "administrative_area": "Cologne", "neighbourhood": null, "country": "Italy", "country_code": "ITA", "continent": "Europe", "label": "Cologne, BS, Italy"}, {"latitude": 43.722186, "longitude": 0.97729, "type": "locality", "name": "Cologne", "number": null, "postal_code": null, "street": null, "confidence": 1, "region": "Gers", "region_code": "GE", "county": "Cologne", "locality": "Cologne", "administrative_area": "Cologne", "neighbourhood": null, "country": "France", "country_code": "FRA", "continent": "Europe", "label": "Cologne, France"}, {"latitude": 18.73333, "longitude": -71.76667, "type": "locality", "name": "Cologne", "number": null, "postal_code": null, "street": null, "confidence": 1, "region": "Centre", "region_code": "CE", "county": "Lascahobas", "locality": "Cologne", "administrative_area": null, "neighbourhood": null, "country": "Haiti", "country_code": "HTI", "continent": "North America", "label": "Cologne, CE, Haiti"}, {"latitude": 47.00991, "longitude": 2.32114, "type": "locality", "name": "Cologne", "number": null, "postal_code": null, "street": null, "confidence": 1, "region": "Cher", "region_code": "CH", "county": "Ch\u00e2rost", "locality": "Cologne", "administrative_area": "Le Subdray", "neighbourhood": null, "country": "France", "country_code": "FRA", "continent": "Europe", "label": "Cologne, France"}, {"latitude": 3.21667, "longitude": -51.23333, "type": "locality", "name": "Cologne", "number": null, "postal_code": null, "street": null, "confidence": 1, "region": "Amapa", "region_code": "AP", "county": "Oiapoque", "locality": "Cologne", "administrative_area": "Vila Velha", "neighbourhood": null, "country": "Brazil", "country_code": "BRA", "continent": "South America", "label": "Cologne, AP, Brazil"}, {"latitude": 37.5307, "longitude": -76.69107, "type": "locality", "name": "Cologne", "number": null, "postal_code": null, "street": null, "confidence": 1, "region": "Virginia", "region_code": "VA", "county": "King and Queen County", "locality": "Cologne", "administrative_area": null, "neighbourhood": null, "country": "United States", "country_code": "USA", "continent": "North America", "label": "Cologne, VA, USA"}, {"latitude": 28.70555, "longitude": -97.18166, "type": "locality", "name": "Cologne", "number": null, "postal_code": null, "street": null, "confidence": 1, "region": "Texas", "region_code": "TX", "county": "Goliad County", "locality": "Cologne", "administrative_area": null, "neighbourhood": null, "country": "United States", "country_code": "USA", "continent": "North America", "label": "Cologne, TX, USA"}, {"latitude": 39.50484, "longitude": -74.61321, "type": "locality", "name": "Cologne", "number": null, "postal_code": null, "street": null, "confidence": 1, "region": "New Jersey", "region_code": "NJ", "county": "Atlantic County", "locality": "Cologne", "administrative_area": "Galloway Township", "neighbourhood": null, "country": "United States", "country_code": "USA", "continent": "North America", "label": "Cologne, NJ, USA"}, {"latitude": 44.773543, "longitude": -93.78993, "type": "locality", "name": "Cologne", "number": null, "postal_code": null, "street": null, "confidence": 1, "region": "Minnesota", "region_code": "MN", "county": "Carver County", "locality": "Cologne", "administrative_area": "Cologne", "neighbourhood": null, "country": "United States", "country_code": "USA", "continent": "North America", "label": "Cologne, MN, USA"}]}, "Milan": {"data": [{"latitude": 45.473702, "longitude": 9.170685, "type": "locality", "name": "Milan", "number": null, "postal_code": null, "street": null, "confidence": 1, "region": "Milano", "region_code": "MI", "county": null, "locality": "Milan", "administrative_area": "Milan", "neighbourhood": null, "country": "Italy", "country_code": "ITA", "continent": "Europe", "label": "Milan, MI, Italy"}, {"latitude": 45.447319, "longitude": 9.118788, "type": "region", "name": "Milano", "number": null, "postal_code": null, "street": null, "confidence": 0.3, "region": "Milano", "region_code": "MI", "county": null, "locality": null, "administrative_area": null, "neighbourhood": null, "country": "Italy", "country_code": "ITA", "continent": "Europe", "label": "Milano, Italy"}, {"latitude": 35.9162, "longitude": -88.758614, "type": "locality", "name": "Milan", "number": null, "postal_code": null, "street": null, "confidence": 1, "region": "Tennessee", "region_code": "TN", "county": "Gibson County", "locality": "Milan", "administrative_area": null, "neighbourhood": null, "country": "United States", "country_code": "USA", "continent": "North America", "label": "Milan, TN, USA"}, {"latitude": 41.450191, "longitude": -90.567081, "type": "locality", "name": "Milan", "number": null, "postal_code": null, "street": null, "confidence": 1, "region": "Illinois", "region_code": "IL", "county": "Rock Island County", "locality": "Milan", "administrative_area": "Blackhawk Township", "neighbourhood": null, "country": "United States", "country_code": "USA", "continent": "North America", "label": "Milan, IL, USA"}, {"latitude": 1.29205, "longitude": -75.51167, "type": "locality", "name": "Mil\u00e1n", "number": null, "postal_code": null, "street": null, "confidence": 1, "region": "Caquet\u00e1", "region_code": "CQ", "county": "Mil\u00e1n", "locality": "Mil\u00e1n", "administrative_area": null, "neighbourhood": null, "country": "Colombia", "country_code": "COL", "continent": "South America", "label": "Mil\u00e1n, CQ, Colombia"}, {"latitude": 1.121994, "longitude": -75.644004, "type": "county", "name": "Valpara\u00edso", "number": null, "postal_code": null, "street": null, "confidence": 0.4, "region": "Caquet\u00e1", "region_code": "CQ", "county": "Valpara\u00edso", "locality": null, "administrative_area": null, "neighbourhood": null, "country": "Colombia", "country_code": "COL", "continent": "South America", "label": "Valpara\u00edso, CQ, Colombia"}, {"latitude": 29.933895, "longitude": -90.097966, "type": "neighbourhood", "name": "Milan", "number": null, "postal_code": null, "street": null, "confidence": 0.6, "region": "Louisiana", "region_code": "LA", "county": "Orleans Parish", "locality": "New Orleans", "administrative_area": null, "neighbourhood": "Milan", "country": "United States", "country_code": "USA", "continent": "North America", "label": "Milan, New Orleans, LA, USA"}, {"latitude": 42.12889, "longitude": 19.5875, "type": "locality", "name": "Milan", "number": null, "postal_code": null, "street": null, "confidence": 1, "region": "Shkod\u00ebr County", "region_code": "SD", "county": "Shkod\u00ebr", "locality": "Milan", "administrative_area": null, "neighbourhood": null, "country": "Albania", "country_code": "ALB", "continent": "Europe", "label": "Milan, SD, Albania"}, {"latitude": 39.79434, "longitude": 42.87568, "type": "locality", "name": "Alkusak", "number": null, "postal_code": null, "street": null, "confidence": 1, "region": "Agri", "region_code": "AG", "county": "Eleskirt", "locality": "Alkusak", "administrative_area": null, "neighbourhood": null, "country": "Turkey", "country_code": "TUR", "continent": "Asia", "label": "Alkusak, AG, Turkey"}, {"latitude": 41.90757, "longitude": -76.52328, "type": "locality", "name": "Milan", "number": null, "postal_code": null, "street": null, "confidence": 1, "region": "Pennsylvania", "region_code": "PA", "county": "Bradford County", "locality": "Milan", "administrative_area": "Ulster Township", "neighbourhood": null, "country": "United States", "country_code": "USA", "continent": "North America", "label": "Milan, PA, USA"}]}, "Eindhoven": {"data": [{"latitude": 51.455555, "longitude": 5.478826, "type": "locality", "name": "Eindhoven", "number": null, "postal_code": null, "street": null, "confidence": 1, "region": "Noord-Brabant", "region_code": "NB", "county": null, "locality": "Eindhoven", "administrative_area": null, "neighbourhood": null, "country": "Netherlands", "country_code": "NLD", "continent": "Europe", "label": "Eindhoven, NB, Netherlands"}]}, "Budapest": {"data": [{"latitude": 47.516581, "longitude": 19.092281, "type": "locality", "name": "Budapest", "number": null, "postal_code": null, "street": null, "confidence": 1, "region": "Budapest", "region_code": "BU", "county": null, "locality": "Budapest", "administrative_area": null, "neighbourhood": null, "country": "Hungary", "country_code": "HUN", "continent": "Europe", "label": "Budapest, Hungary"}, {"latitude": 33.71511, "longitude": -85.21801, "type": "locality", "name": "Budapest", "number": null, "postal_code": null, "street": null, "confidence": 1, "region": "Georgia", "region_code": "GA", "county": "Haralson County", "locality": "Budapest", "administrative_area": null, "neighbourhood": null, "country": "United States", "country_code": "USA", "continent": "North America", "label": "Budapest, GA, USA"}, {"latitude": 36.76894, "longitude": -90.71095, "type": "locality", "name": "Budapest", "number": null, "postal_code": null, "street": null, "confidence": 1, "region": "Missouri", "region_code": "MO", "county": "Ripley County", "locality": "Budapest", "administrative_area": "Johnson Township", "neighbourhood": null, "country": "United States", "country_code": "USA", "continent": "North America", "label": "Budapest, MO, USA"}]}, "Vilnius": {"data": [{"latitude": 54.700902, "longitude": 25.251531, "type": "locality", "name": "Vilnius", "number": null, "postal_code": null, "street": null, "confidence": 1, "region": "Vilnius", "region_code": "VI", "county": null, "locality": "Vilnius", "administrative_area": null, "neighbourhood": null, "country": "Lithuania", "country_code": "LTU", "continent": "Europe", "label": "Vilnius, Lithuania"}, {"latitude": 54.759358, "longitude": 25.594072, "type": "county", "name": "Vilnius", "number": null, "postal_code": null, "street": null, "confidence": 0.4, "region": "Vilnius", "region_code": "VI", "county": "Vilnius", "locality": null, "administrative_area": null, "neighbourhood": null, "country": "Lithuania", "country_code": "LTU", "continent": "Europe", "label": "Vilnius, VI, Lithuania"}, {"latitude": 54.685889, "longitude": 25.283746, "type": "localadmin", "name": "Vilnius", "number": null, "postal_code": null, "street": null, "confidence": 1, "region": "Vilnius", "region_code": "VI", "county": null, "locality": null, "administrative_area": "Vilnius", "neighbourhood": null, "country": "Lithuania", "country_code": "LTU", "continent": "Europe", "label": "Vilnius, Lithuania"}]}, "Valencia": {"data": [{"latitude": 10.178219, "longitude": -68.00312, "type": "locality", "name": "Valencia", "number": null, "postal_code": null, "street": null, "confidence": 1, "region": "Carabobo", "region_code": "CA", "county": "Valencia", "locality": "Valencia", "administrative_area": null, "neighbourhood": null, "country": "Venezuela", "country_code": "VEN", "continent": "South America", "label": "Valencia, CA, Venezuela"}, {"latitude": 39.464773, "longitude": -0.363258, "type": "locality", "name": "Valencia", "number": null, "postal_code": null, "street": null, "confidence": 1, "region": "Valencia", "region_code": "VC", "county": null, "locality": "Valencia", "administrative_area": "Valencia", "neighbourhood": null, "country": "Spain", "country_code": "ESP", "continent": "Europe", "label": "Valencia, Spain"}, {"latitude": 39.401429, "longitude": -0.55473, "type": "macroregion", "name": "Valencian Community", "number": null, "postal_code": null, "street": null, "confidence": 0.1, "region": null, "region_code": null, "county": null, "locality": null, "administrative_area": null, "neighbourhood": null, "country": "Spain", "country_code": "ESP", "continent": "Europe", "label": "Valencian Community, Spain"}, {"latitude": 34.44361, "longitude": -118.60953, "type": "locality", "name": "Valencia", "number": null, "postal_code": null, "street": null, "confidence": 1, "region": "California", "region_code": "CA", "county": "Los Angeles County", "locality": "Valencia", "administrative_area": null, "neighbourhood": null, "country": "United States", "country_code": "USA", "continent": "North America", "label": "Valencia, CA, USA"}, {"latitude": 7.90639, "longitude": 125.09417, "type": "locality", "name": "Valencia", "number": null, "postal_code": null, "street": null, "confidence": 1, "region": "Bukidnon", "region_code": null, "county": "Valencia", "locality": "Valencia", "administrative_area": null, "neighbourhood": null, "country": "Philippines", "country_code": "PHL", "continent": "Asia", "label": "Valencia, Philippines"}, {"latitude": 44.925158, "longitude": 4.902453, "type": "locality", "name": "Valence", "number": null, "postal_code": null, "street": null, "confidence": 1, "region": "Dr\u00f4me", "region_code": "DM", "county": "Valence", "locality": "Valence", "administrative_area": "Valence", "neighbourhood": null, "country": "France", "country_code": "FRA", "continent": "Europe", "label": "Valence, France"}, {"latitude": 8.25801, "longitude": -76.14928, "type": "locality", "name": "Valencia", "number": null, "postal_code": null, "street": null, "confidence": 1, "region": "C\u00f3rdoba", "region_code": "CO", "county": "Valencia", "locality": "Valencia", "administrative_area": null, "neighbourhood": null, "country": "Colombia", "country_code": "COL", "continent": "South America", "label": "Valencia, CO, Colombia"}, {"latitude": 39.409938, "longitude": -7.245231, "type": "locality", "name": "Valencia de Alcantara", "number": null, "postal_code": null, "street": null, "confidence": 1, "region": "Caceres", "region_code": "EX", "county": null, "locality": "Valencia de Alcantara", "administrative_area": "Valencia De Alc\u00e1ntara", "neighbourhood": null, "country": "Spain", "country_code": "ESP", "continent": "Europe", "label": "Valencia de Alcantara, EX, Spain"}, {"latitude": 10.136, "longitude": 123.6126, "type": "locality", "name": "Valencia", "number": null, "postal_code": null, "street": null, "confidence": 1, "region": "Cebu", "region_code": "CB", "county": "Carcar", "locality": "Valencia", "administrative_area": null, "neighbourhood": null, "country": "Philippines", "country_code": "PHL", "continent": "Asia", "label": "Valencia, CB, Philippines"}, {"latitude": 10.131618, "longitude": -67.88714, "type": "county", "name": "Los Guayos", "number": null, "postal_code": null, "street": null, "confidence": 0.4, "region": "Carabobo", "region_code": "CA", "county": "Los Guayos", "locality": null, "administrative_area": null, "neighbourhood": null, "country": "Venezuela", "country_code": "VEN", "continent": "South America", "label": "Los Guayos, CA, Venezuela"}]}, "Alicante": {"data": [{"latitude": 38.360892, "longitude": -0.486281, "type": "locality", "name": "Alicante", "number": null, "postal_code": null, "street": null, "confidence": 1, "region": "Alicante", "region_code": "VC", "county": null, "locality": "Alicante", "administrative_area": "Alacant/Alicante", "neighbourhood": null, "country": "Spain", "country_code": "ESP", "continent": "Europe", "label": "Alicante, Spain"}, {"latitude": 10.89704, "longitude": 123.0185, "type": "locality", "name": "Alicante", "number": null, "postal_code": null, "street": null, "confidence": 1, "region": "Negros Occidental", "region_code": "ND", "county": "Enrique B. Magalona", "locality": "Alicante", "administrative_area": null, "neighbourhood": null, "country": "Philippines", "country_code": "PHL", "continent": "Asia", "label": "Alicante, ND, Philippines"}, {"latitude": 21.98567, "longitude": -79.39938, "type": "locality", "name": "Alicante", "number": null, "postal_code": null, "street": null, "confidence": 1, "region": "Sancti Sp\u00edritus", "region_code": "SS", "county": "Sancti Sp\u00edritus", "locality": "Alicante", "administrative_area": null, "neighbourhood": null, "country": "Cuba", "country_code": "CUB", "continent": "North America", "label": "Alicante, SS, Cuba"}, {"latitude": 10.64766, "longitude": -74.22969, "type": "locality", "name": "Alicante", "number": null, "postal_code": null, "street": null, "confidence": 1, "region": "Magdalena", "region_code": "MA", "county": "Aracataca", "locality": "Alicante", "administrative_area": null, "neighbourhood": null, "country": "Colombia", "country_code": "COL", "continent": "South America", "label": "Alicante, MA, Colombia"}, {"latitude": 6.6, "longitude": -74.41667, "type": "locality", "name": "Alicante", "number": null, "postal_code": null, "street": null, "confidence": 1, "region": "Antioquia", "region_code": "AN", "county": "Puerto Berr\u00edo", "locality": "Alicante", "administrative_area": null, "neighbourhood": null, "country": "Colombia", "country_code": "COL", "continent": "South America", "label": "Alicante, AN, Colombia"}, {"latitude": 6.61667, "longitude": -74.6, "type": "locality", "name": "Alicante", "number": null, "postal_code": null, "street": null, "confidence": 1, "region": "Antioquia", "region_code": "AN", "county": "Maceo", "locality": "Alicante", "administrative_area": null, "neighbourhood": null, "country": "Colombia", "country_code": "COL", "continent": "South America", "label": "Alicante, AN, Colombia"}, {"latitude": 10.2414, "longitude": 123.0057, "type": "locality", "name": "Alicante", "number": null, "postal_code": null, "street": null, "confidence": 1, "region": "Negros Occidental", "region_code": "ND", "county": "Isabela", "locality": "Alicante", "administrative_area": null, "neighbourhood": null, "country": "Philippines", "country_code": "PHL", "continent": "Asia", "label": "Alicante, ND, Philippines"}, {"latitude": 50.861172, "longitude": 12.893523, "type": "neighbourhood", "name": "Borna", "number": null, "postal_code": null, "street": null, "confidence": 0.6, "region": "Saxony", "region_code": "SN", "county": "Chemnitz", "locality": "Chemnitz", "administrative_area": "Chemnitz", "neighbourhood": "Borna", "country": "Germany", "country_code": "DEU", "continent": "Europe", "label": "Borna, Chemnitz, SN, Germany"}]}, "Iasi": {"data": [{"latitude": 47.160306, "longitude": 27.589244, "type": "locality", "name": "Ia\u0219i", "number": null, "postal_code": null, "street": null, "confidence": 1, "region": "Iasi", "region_code": "IS", "county": null, "locality": "Ia\u0219i", "administrative_area": null, "neighbourhood": null, "country": "Romania", "country_code": "ROU", "continent": "Europe", "label": "Ia\u0219i, Romania"}, {"latitude": 44.99334, "longitude": 23.24821, "type": "locality", "name": "Ia\u015fi-Gorj", "number": null, "postal_code": null, "street": null, "confidence": 1, "region": "Gorj", "region_code": "GJ", "county": null, "locality": "Ia\u015fi-Gorj", "administrative_area": null, "neighbourhood": null, "country": "Romania", "country_code": "ROU", "continent": "Europe", "label": "Ia\u015fi-Gorj, GJ, Romania"}, {"latitude": 45.76159, "longitude": 24.93075, "type": "locality", "name": "Ia\u015fi", "number": null, "postal_code": null, "street": null, "confidence": 1, "region": "Brasov", "region_code": "BV", "county": null, "locality": "Ia\u015fi", "administrative_area": null, "neighbourhood": null, "country": "Romania", "country_code": "ROU", "continent": "Europe", "label": "Ia\u015fi, BV, Romania"}]}, "Gothenburg": {"data": [{"latitude": 57.735628, "longitude": 12.014286, "type": "locality", "name": "Gothenburg", "number": null, "postal_code": null, "street": null, "confidence": 1, "region": "Vastra Gotaland", "region_code": "VG", "county": "Goteborg", "locality": "Gothenburg", "administrative_area": "Nylose", "neighbourhood": null, "country": "Sweden", "country_code": "SWE", "continent": "Europe", "label": "Gothenburg, VG, Sweden"}, {"latitude": 40.925843, "longitude": -100.160727, "type": "locality", "name": "Gothenburg", "number": null, "postal_code": null, "street": null, "confidence": 1, "region": "Nebraska", "region_code": "NE", "county": "Dawson County", "locality": "Gothenburg", "administrative_area": "Gothenburg", "neighbourhood": null, "country": "United States", "country_code": "USA", "continent": "North America", "label": "Gothenburg, NE, USA"}, {"latitude": 40.925703, "longitude": -100.090209, "type": "localadmin", "name": "Gothenburg", "number": null, "postal_code": null, "street": null, "confidence": 1, "region": "Nebraska", "region_code": "NE", "county": "Dawson County", "locality": null, "administrative_area": "Gothenburg", "neighbourhood": null, "country": "United States", "country_code": "USA", "continent": "North America", "label": "Gothenburg, NE, USA"}]}, "Palma": {"data": [{"latitude": 39.575748, "longitude": 2.656644, "type": "locality", "name": "Palma de Mallorca", "number": null, "postal_code": null, "street": null, "confidence": 1, "region": "Balearic Islands", "region_code": "PM", "county": null, "locality": "Palma de Mallorca", "administrative_area": "Palma", "neighbourhood": null, "country": "Spain", "country_code": "ESP", "continent": "Europe", "label": "Palma de Mallorca, PM, Spain"}, {"latitude": 40.868213, "longitude": 14.550535, "type": "locality", "name": "Palma Campania", "number": null, "postal_code": null, "street": null, "confidence": 1, "region": "Napoli", "region_code": "NA", "county": null, "locality": "Palma Campania", "administrative_area": "Palma Campania", "neighbourhood": null, "country": "Italy", "country_code": "ITA", "continent": "Europe", "label": "Palma Campania, NA, Italy"}, {"latitude": -3.559015, "longitude": -40.636321, "type": "locality", "name": "Corea\u00fa", "number": null, "postal_code": null, "street": null, "confidence": 1, "region": "Ceara", "region_code": "CE", "county": "Coreau", "locality": "Corea\u00fa", "administrative_area": "Corea\u00fa", "neighbourhood": null, "country": "Brazil", "country_code": "BRA", "continent": "South America", "label": "Corea\u00fa, CE, Brazil"}, {"latitude": -10.78222, "longitude": 40.48111, "type": "locality", "name": "Palma", "number": null, "postal_code": null, "street": null, "confidence": 1, "region": "Cabo Delgado", "region_code": "CD", "county": "Palma", "locality": "Palma", "administrative_area": null, "neighbourhood": null, "country": "Mozambique", "country_code": "MOZ", "continent": "Africa", "label": "Palma, CD, Mozambique"}, {"latitude": -21.375305, "longitude": -42.3142, "type": "locality", "name": "Palma", "number": null, "postal_code": null, "street": null, "confidence": 1, "region": "Minas Gerais", "region_code": "MG", "county": "Palma", "locality": "Palma", "administrative_area": "Palma", "neighbourhood": null, "country": "Brazil", "country_code": "BRA", "continent": "South America", "label": "Palma, MG, Brazil"}, {"latitude": 27.1225, "longitude": -100.84341, "type": "locality", "name": "Palma", "number": null, "postal_code": null, "street": null, "confidence": 1, "region": "Coahuila de Zaragoza", "region_code": "COA", "county": "Progreso", "locality": "Palma", "administrative_area": null, "neighbourhood": null, "country": "Mexico", "country_code": "MEX", "continent": "North America", "label": "Palma, COA, Mexico"}, {"latitude": 17.76032, "longitude": -94.16029, "type": "locality", "name": "Las Palmas", "number": null, "postal_code": null, "street": null, "confidence": 1, "region": "Veracruz de Ignacio de la Llave", "region_code": "VER", "county": "Las Choapas", "locality": "Las Palmas", "administrative_area": null, "neighbourhood": null, "country": "Mexico", "country_code": "MEX", "continent": "North America", "label": "Las Palmas, VER, Mexico"}, {"latitude": 25.38286, "longitude": -108.15909, "type": "locality", "name": "La Palma", "number": null, "postal_code": null, "street": null, "confidence": 1, "region": "Sinaloa", "region_code": "SIN", "county": "Angostura", "locality": "La Palma", "administrative_area": null, "neighbourhood": null, "country": "Mexico", "country_code": "MEX", "continent": "North America", "label": "La Palma, SIN, Mexico"}, {"latitude": 1.08922, "longitude": -78.81327, "type": "locality", "name": "Palma", "number": null, "postal_code": null, "street": null, "confidence": 1, "region": "Esmeraldas", "region_code": "ES", "county": "San Lorenzo", "locality": "Palma", "administrative_area": null, "neighbourhood": null, "country": "Ecuador", "country_code": "ECU", "continent": "South America", "label": "Palma, ES, Ecuador"}, {"latitude": 10.25528, "longitude": -85.05082, "type": "locality", "name": "Palma", "number": null, "postal_code": null, "street": null, "confidence": 1, "region": "Guanacaste", "region_code": "GU", "county": "Abangares", "locality": "Palma", "administrative_area": null, "neighbourhood": null, "country": "Costa Rica", "country_code": "CRI", "continent": "North America", "label": "Palma, GU, Costa Rica"}]}, "Baden-Baden": {"data": [{"latitude": 48.755271, "longitude": 8.24377, "type": "locality", "name": "Baden", "number": null, "postal_code": null, "street": null, "confidence": 1, "region": "Baden-W\u00fcrttemberg", "region_code": "BW", "county": "Baden-Baden", "locality": "Baden", "administrative_area": "Baden-Baden", "neighbourhood": null, "country": "Germany", "country_code": "DEU", "continent": "Europe", "label": "Baden, BW, Germany"}, {"latitude": 48.74839, "longitude": 8.249621, "type": "localadmin", "name": "Baden-Baden", "number": null, "postal_code": null, "street": null, "confidence": 1, "region": "Baden-W\u00fcrttemberg", "region_code": "BW", "county": "Baden-Baden", "locality": null, "administrative_area": "Baden-Baden", "neighbourhood": null, "country": "Germany", "country_code": "DEU", "continent": "Europe", "label": "Baden-Baden, BW, Germany"}]}, "Porto": {"data": [{"latitude": 41.16106, "longitude": -8.614032, "type": "locality", "name": "Porto", "number": null, "postal_code": null, "street": null, "confidence": 0.6, "region": "Porto", "region_code": "PO", "county": null, "locality": "Porto", "administrative_area": "Cedofeita", "neighbourhood": null, "country": "Portugal", "country_code": "PRT", "continent": "Europe", "label": "Porto, Portugal"}, {"latitude": -0.030965, "longitude": -51.198272, "type": "locality", "name": "Santana", "number": null, "postal_code": null, "street": null, "confidence": 0.6, "region": "Amapa", "region_code": "AP", "county": "Santana", "locality": "Santana", "administrative_area": "Santana", "neighbourhood": null, "country": "Brazil", "country_code": "BRA", "continent": "South America", "label": "Santana, AP, Brazil"}, {"latitude": -3.88982, "longitude": -42.71199, "type": "locality", "name": "Porto", "number": null, "postal_code": null, "street": null, "confidence": 0.6, "region": "Piaui", "region_code": "PI", "county": "Porto", "locality": "Porto", "administrative_area": null, "neighbourhood": null, "country": "Brazil", "country_code": "BRA", "continent": "South America", "label": "Porto, PI, Brazil"}, {"latitude": 33.461769, "longitude": -117.701464, "type": "neighbourhood", "name": "Harbor", "number": null, "postal_code": null, "street": null, "confidence": 0.6, "region": "California", "region_code": "CA", "county": "Orange County", "locality": "Dana Point", "administrative_area": null, "neighbourhood": "Harbor", "country": "United States", "country_code": "USA", "continent": "North America", "label": "Harbor, Dana Point, CA, USA"}, {"latitude": 39.87143, "longitude": -7.99307, "type": "locality", "name": "Porto", "number": null, "postal_code": null, "street": null, "confidence": 0.6, "region": "Castelo Branco", "region_code": "CB", "county": null, "locality": "Porto", "administrative_area": "Troviscal", "neighbourhood": null, "country": "Portugal", "country_code": "PRT", "continent": "Europe", "label": "Porto, CB, Portugal"}, {"latitude": -22.03333, "longitude": -53.73333, "type": "locality", "name": "Porto", "number": null, "postal_code": null, "street": null, "confidence": 0.6, "region": "Mato Grosso Do Sul", "region_code": "MS", "county": "Angelica", "locality": "Porto", "administrative_area": "Ang\u00e9lica", "neighbourhood": null, "country": "Brazil", "country_code": "BRA", "continent": "South America", "label": "Porto, MS, Brazil"}, {"latitude": 42.16737, "longitude": -6.89934, "type": "locality", "name": "Porto", "number": null, "postal_code": null, "street": null, "confidence": 0.6, "region": "Zamora", "region_code": "CL", "county": null, "locality": "Porto", "administrative_area": "Porto", "neighbourhood": null, "country": "Spain", "country_code": "ESP", "continent": "Europe", "label": "Porto, CL, Spain"}, {"latitude": 42.48256, "longitude": -6.89786, "type": "locality", "name": "Porto", "number": null, "postal_code": null, "street": null, "confidence": 0.6, "region": "Ourense", "region_code": "GA", "county": null, "locality": "Porto", "administrative_area": "Rubi\u00e1", "neighbourhood": null, "country": "Spain", "country_code": "ESP", "continent": "Europe", "label": "Porto, GA, Spain"}, {"latitude": -19.43333, "longitude": -57.41667, "type": "locality", "name": "Porto", "number": null, "postal_code": null, "street": null, "confidence": 0.6, "region": "Mato Grosso Do Sul", "region_code": "MS", "county": "Corumba", "locality": "Porto", "administrative_area": "Albuquerque", "neighbourhood": null, "country": "Brazil", "country_code": "BRA", "continent": "South America", "label": "Porto, MS, Brazil"}, {"latitude": 46.72481, "longitude": 31.00459, "type": "locality", "name": "Port", "number": null, "postal_code": null, "street": null, "confidence": 0.6, "region": "Odessa", "region_code": "OD", "county": "Kominternivs'kyi", "locality": "Port", "administrative_area": null, "neighbourhood": null, "country": "Ukraine", "country_code": "UKR", "continent": "Europe", "label": "Port, OD, Ukraine"}]}, "Cluj-Napoca": {"data": [{"latitude": 46.765225, "longitude": 23.615723, "type": "locality", "name": "Cluj-Napoca", "number": null, "postal_code": null, "street": null, "confidence": 1, "region": "Cluj", "region_code": "CJ", "county": null, "locality": "Cluj-Napoca", "administrative_area": null, "neighbourhood": null, "country": "Romania", "country_code": "ROU", "continent": "Europe", "label": "Cluj-Napoca, CJ, Romania"}]}, "Lviv": {"data": [{"latitude": 49.841559, "longitude": 24.031393, "type": "locality", "name": "Lviv", "number": null, "postal_code": null, "street": null, "confidence": 1, "region": "Lviv", "region_code": "LV", "county": "L'vivs'ka", "locality": "Lviv", "administrative_area": null, "neighbourhood": null, "country": "Ukraine", "country_code": "UKR", "continent": "Europe", "label": "Lviv, Ukraine"}, {"latitude": 49.524529, "longitude": 23.981401, "type": "locality", "name": "Lviv", "number": null, "postal_code": null, "street": null, "confidence": 1, "region": "Lviv", "region_code": "LV", "county": null, "locality": "Lviv", "administrative_area": null, "neighbourhood": null, "country": "Ukraine", "country_code": "UKR", "continent": "Europe", "label": "Lviv, Ukraine"}, {"latitude": 50.278258, "longitude": 35.907763, "type": "county", "name": "Zolochivs'kyi", "number": null, "postal_code": null, "street": null, "confidence": 0.4, "region": "Kharkiv", "region_code": "KK", "county": "Zolochivs'kyi", "locality": null, "administrative_area": null, "neighbourhood": null, "country": "Ukraine", "country_code": "UKR", "continent": "Europe", "label": "Zolochivs'kyi, KK, Ukraine"}, {"latitude": 47.86086, "longitude": 33.54412, "type": "locality", "name": "L'viv", "number": null, "postal_code": null, "street": null, "confidence": 1, "region": "Dnipropetrovs'k", "region_code": "DP", "county": "Kryvoriz'kyi", "locality": "L'viv", "administrative_area": null, "neighbourhood": null, "country": "Ukraine", "country_code": "UKR", "continent": "Europe", "label": "L'viv, DP, Ukraine"}]}, "Billund": {"data": [{"latitude": 55.724992, "longitude": 9.121099, "type": "locality", "name": "Billund", "number": null, "postal_code": null, "street": null, "confidence": 1, "region": "Southern", "region_code": "SD", "county": null, "locality": "Billund", "administrative_area": "Billund", "neighbourhood": null, "country": "Denmark", "country_code": "DNK", "continent": "Europe", "label": "Billund, SD, Denmark"}, {"latitude": 55.25796, "longitude": 9.28056, "type": "locality", "name": "Billund", "number": null, "postal_code": null, "street": null, "confidence": 1, "region": "Southern", "region_code": "SD", "county": null, "locality": "Billund", "administrative_area": "Haderslev", "neighbourhood": null, "country": "Denmark", "country_code": "DNK", "continent": "Europe", "label": "Billund, SD, Denmark"}]}, "Rome": {"data": [{"latitude": 41.878243, "longitude": 12.52809, "type": "locality", "name": "Rome", "number": null, "postal_code": null, "street": null, "confidence": 1, "region": "Rome", "region_code": "RM", "county": null, "locality": "Rome", "administrative_area": "Rome", "neighbourhood": null, "country": "Italy", "country_code": "ITA", "continent": "Europe", "label": "Rome, RM, Italy"}, {"latitude": 34.260612, "longitude": -85.172951, "type": "locality", "name": "Rome", "number": null, "postal_code": null, "street": null, "confidence": 1, "region": "Georgia", "region_code": "GA", "county": "Floyd County", "locality": "Rome", "administrative_area": null, "neighbourhood": null, "country": "United States", "country_code": "USA", "continent": "North America", "label": "Rome, GA, USA"}, {"latitude": 43.222538, "longitude": -75.490926, "type": "locality", "name": "Rome", "number": null, "postal_code": null, "street": null, "confidence": 1, "region": "New York", "region_code": "NY", "county": "Oneida County", "locality": "Rome", "administrative_area": "Rome", "neighbourhood": null, "country": "United States", "country_code": "USA", "continent": "North America", "label": "Rome, NY, USA"}, {"latitude": 38.513499, "longitude": -82.335696, "type": "localadmin", "name": "Rome Township", "number": null, "postal_code": null, "street": null, "confidence": 1, "region": "Ohio", "region_code": "OH", "county": "Lawrence County", "locality": null, "administrative_area": "Rome Township", "neighbourhood": null, "country": "United States", "country_code": "USA", "continent": "North America", "label": "Rome Township, OH, USA"}, {"latitude": 38.75928, "longitude": -77.92388, "type": "locality", "name": "Conde", "number": null, "postal_code": null, "street": null, "confidence": 1, "region": "Virginia", "region_code": "VA", "county": "Fauquier County", "locality": "Conde", "administrative_area": null, "neighbourhood": null, "country": "United States", "country_code": "USA", "continent": "North America", "label": "Conde, VA, USA"}, {"latitude": 51.79417, "longitude": 5.32222, "type": "locality", "name": "Rome", "number": null, "postal_code": null, "street": null, "confidence": 1, "region": "Gelderland", "region_code": "GE", "county": null, "locality": "Rome", "administrative_area": "Maasdriel", "neighbourhood": null, "country": "Netherlands", "country_code": "NLD", "continent": "Europe", "label": "Rome, GE, Netherlands"}, {"latitude": 50.69854, "longitude": 3.70284, "type": "locality", "name": "Rome", "number": null, "postal_code": null, "street": null, "confidence": 1, "region": "Hainaut", "region_code": "HT", "county": "Ath", "locality": "Rome", "administrative_area": null, "neighbourhood": null, "country": "Belgium", "country_code": "BEL", "continent": "Europe", "label": "Rome, HT, Belgium"}, {"latitude": 33.10457, "longitude": -89.24007, "type": "locality", "name": "Rome", "number": null, "postal_code": null, "street": null, "confidence": 1, "region": "Mississippi", "region_code": "MS", "county": "Winston County", "locality": "Rome", "administrative_area": null, "neighbourhood": null, "country": "United States", "country_code": "USA", "continent": "North America", "label": "Rome, MS, USA"}, {"latitude": 37.16142, "longitude": -97.14282, "type": "locality", "name": "Rome", "number": null, "postal_code": null, "street": null, "confidence": 1, "region": "Kansas", "region_code": "KS", "county": "Cowley County", "locality": "Rome", "administrative_area": "Beaver Township", "neighbourhood": null, "country": "United States", "country_code": "USA", "continent": "North America", "label": "Rome, KS, USA"}, {"latitude": 41.7108, "longitude": -8.76479, "type": "locality", "name": "Rome", "number": null, "postal_code": null, "street": null, "confidence": 1, "region": "Viana do Castelo", "region_code": "VC", "county": null, "locality": "Rome", "administrative_area": "Santa Marta de Portuzelo", "neighbourhood": null, "country": "Portugal", "country_code": "PRT", "continent": "Europe", "label": "Rome, VC, Portugal"}]}, "Chisinau": {"data": [{"latitude": 47.020682, "longitude": 28.854719, "type": "locality", "name": "Chi\u0219in\u0103u", "number": null, "postal_code": null, "street": null, "confidence": 1, "region": "Chi\u0219in\u0103u Municipality", "region_code": "CV", "county": null, "locality": "Chi\u0219in\u0103u", "administrative_area": null, "neighbourhood": null, "country": "Moldova", "country_code": "MDA", "continent": "Europe", "label": "Chi\u0219in\u0103u, CV, Moldova"}]}, "Gran Canaria": {"data": [{"latitude": 27.968864, "longitude": -15.392475, "type": "locality", "name": "Gran Canaria", "number": null, "postal_code": null, "street": null, "confidence": 1, "region": "Las Palmas", "region_code": "CN", "county": null, "locality": "Gran Canaria", "administrative_area": "Telde", "neighbourhood": null, "country": "Spain", "country_code": "ESP", "continent": "Europe", "label": "Gran Canaria, CN, Spain"}, {"latitude": 27.856546, "longitude": -15.403732, "type": "locality", "name": "Gran Canaria", "number": null, "postal_code": null, "street": null, "confidence": 1, "region": "Las Palmas", "region_code": "CN", "county": null, "locality": "Gran Canaria", "administrative_area": "Ag\u00fcimes", "neighbourhood": null, "country": "Spain", "country_code": "ESP", "continent": "Europe", "label": "Gran Canaria, CN, Spain"}, {"latitude": 28.090787, "longitude": -15.454315, "type": "localadmin", "name": "Las Palmas", "number": null, "postal_code": null, "street": null, "confidence": 1, "region": "Las Palmas", "region_code": "CN", "county": null, "locality": null, "administrative_area": "Las Palmas", "neighbourhood": null, "country": "Spain", "country_code": "ESP", "continent": "Europe", "label": "Las Palmas, Spain"}]}, "Dublin": {"data": [{"latitude": 53.33928, "longitude": -6.281314, "type": "locality", "name": "Dublin", "number": null, "postal_code": null, "street": null, "confidence": 1, "region": "Dublin City", "region_code": "DN", "county": null, "locality": "Dublin", "administrative_area": null, "neighbourhood": null, "country": "Ireland", "country_code": "IRL", "continent": "Europe", "label": "Dublin, DN, Ireland"}, {"latitude": 53.38046, "longitude": -6.27113, "type": "localadmin", "name": "County Dublin", "number": null, "postal_code": null, "street": null, "confidence": 1, "region": "Dublin City", "region_code": "DN", "county": null, "locality": null, "administrative_area": "County Dublin", "neighbourhood": null, "country": "Ireland", "country_code": "IRL", "continent": "Europe", "label": "County Dublin, DN, Ireland"}, {"latitude": 37.719419, "longitude": -121.882702, "type": "locality", "name": "Dublin", "number": null, "postal_code": null, "street": null, "confidence": 1, "region": "California", "region_code": "CA", "county": "Alameda County", "locality": "Dublin", "administrative_area": null, "neighbourhood": null, "country": "United States", "country_code": "USA", "continent": "North America", "label": "Dublin, CA, USA"}, {"latitude": 32.53877, "longitude": -82.921248, "type": "locality", "name": "Dublin", "number": null, "postal_code": null, "street": null, "confidence": 1, "region": "Georgia", "region_code": "GA", "county": "Laurens County", "locality": "Dublin", "administrative_area": null, "neighbourhood": null, "country": "United States", "country_code": "USA", "continent": "North America", "label": "Dublin, GA, USA"}, {"latitude": 40.102601, "longitude": -83.149381, "type": "locality", "name": "Dublin", "number": null, "postal_code": null, "street": null, "confidence": 1, "region": "Ohio", "region_code": "OH", "county": "Franklin County", "locality": "Dublin", "administrative_area": "Dublin", "neighbourhood": null, "country": "United States", "country_code": "USA", "continent": "North America", "label": "Dublin, OH, USA"}, {"latitude": 44.17945, "longitude": -85.93146, "type": "locality", "name": "Dublin", "number": null, "postal_code": null, "street": null, "confidence": 1, "region": "Michigan", "region_code": "MI", "county": "Manistee County", "locality": "Dublin", "administrative_area": "Norman Township", "neighbourhood": null, "country": "United States", "country_code": "USA", "continent": "North America", "label": "Dublin, MI, USA"}, {"latitude": 52.8811, "longitude": 28.8072, "type": "locality", "name": "Poblin", "number": null, "postal_code": null, "street": null, "confidence": 1, "region": "Mahilyowskaya Voblasts'", "region_code": "HM", "county": "Hlusk", "locality": "Poblin", "administrative_area": null, "neighbourhood": null, "country": "Belarus", "country_code": "BLR", "continent": "Europe", "label": "Poblin, HM, Belarus"}, {"latitude": 37.43474, "longitude": -97.38921, "type": "locality", "name": "Zyba", "number": null, "postal_code": null, "street": null, "confidence": 1, "region": "Kansas", "region_code": "KS", "county": "Sumner County", "locality": "Zyba", "administrative_area": "London Township", "neighbourhood": null, "country": "United States", "country_code": "USA", "continent": "North America", "label": "Zyba, KS, USA"}, {"latitude": 33.21679, "longitude": -83.86324, "type": "locality", "name": "Cork", "number": null, "postal_code": null, "street": null, "confidence": 1, "region": "Georgia", "region_code": "GA", "county": "Butts County", "locality": "Cork", "administrative_area": null, "neighbourhood": null, "country": "United States", "country_code": "USA", "continent": "North America", "label": "Cork, GA, USA"}, {"latitude": 8.13746, "longitude": -13.1927, "type": "locality", "name": "Dublin", "number": null, "postal_code": null, "street": null, "confidence": 1, "region": "Western Area", "region_code": "WE", "county": "Western Rural", "locality": "Dublin", "administrative_area": null, "neighbourhood": null, "country": "Sierra Leone", "country_code": "SLE", "continent": "Africa", "label": "Dublin, WE, Sierra Leone"}]}, "Valletta": {"data": [{"latitude": 35.898936, "longitude": 14.512859, "type": "region", "name": "Valletta (Citta' Umilissima)", "number": null, "postal_code": null, "street": null, "confidence": 0.3, "region": "Valletta (Citta' Umilissima)", "region_code": "MT", "county": null, "locality": null, "administrative_area": null, "neighbourhood": null, "country": "Malta", "country_code": "MLT", "continent": "Europe", "label": "Valletta (Citta' Umilissima), Malta"}, {"latitude": 35.89905, "longitude": 14.511673, "type": "locality", "name": "Valletta", "number": null, "postal_code": null, "street": null, "confidence": 1, "region": "Valletta (Citta' Umilissima)", "region_code": "MT", "county": null, "locality": "Valletta", "administrative_area": null, "neighbourhood": null, "country": "Malta", "country_code": "MLT", "continent": "Europe", "label": "Valletta, MT, Malta"}, {"latitude": 45.06667, "longitude": 11.28333, "type": "locality", "name": "Valletta", "number": null, "postal_code": null, "street": null, "confidence": 1, "region": "Rovigo", "region_code": "RO", "county": null, "locality": "Valletta", "administrative_area": "Castelnovo Bariano", "neighbourhood": null, "country": "Italy", "country_code": "ITA", "continent": "Europe", "label": "Valletta, RO, Italy"}, {"latitude": 45.62423, "longitude": 11.21772, "type": "locality", "name": "Valletta", "number": null, "postal_code": null, "street": null, "confidence": 1, "region": "Vicenza", "region_code": "VI", "county": null, "locality": "Valletta", "administrative_area": "Crespadoro", "neighbourhood": null, "country": "Italy", "country_code": "ITA", "continent": "Europe", "label": "Valletta, VI, Italy"}, {"latitude": 46.74027, "longitude": 11.77935, "type": "locality", "name": "Valletta", "number": null, "postal_code": null, "street": null, "confidence": 1, "region": "Bolzano/Bozen", "region_code": "BZ", "county": null, "locality": "Valletta", "administrative_area": "L\u00fcsen", "neighbourhood": null, "country": "Italy", "country_code": "ITA", "continent": "Europe", "label": "Valletta, BZ, Italy"}]}, "Bristol": {"data": [{"latitude": 51.449749, "longitude": -2.584173, "type": "locality", "name": "Bristol", "number": null, "postal_code": null, "street": null, "confidence": 1, "region": "Bristol", "region_code": null, "county": "City of Bristol", "locality": "Bristol", "administrative_area": null, "neighbourhood": null, "country": "United Kingdom", "country_code": "GBR", "continent": "Europe", "label": "Bristol, England, United Kingdom"}, {"latitude": 39.09112, "longitude": -94.41551, "type": "locality", "name": "Independence", "number": null, "postal_code": null, "street": null, "confidence": 1, "region": "Missouri", "region_code": "MO", "county": "Jackson County", "locality": "Independence", "administrative_area": "Blue Township", "neighbourhood": null, "country": "United States", "country_code": "USA", "continent": "North America", "label": "Independence, MO, USA"}, {"latitude": 41.681537, "longitude": -72.9407, "type": "locality", "name": "Bristol", "number": null, "postal_code": null, "street": null, "confidence": 1, "region": "Connecticut", "region_code": "CT", "county": "Hartford County", "locality": "Bristol", "administrative_area": "Bristol", "neighbourhood": null, "country": "United States", "country_code": "USA", "continent": "North America", "label": "Bristol, CT, USA"}, {"latitude": 45.376141, "longitude": -122.7713, "type": "locality", "name": "Tualatin", "number": null, "postal_code": null, "street": null, "confidence": 1, "region": "Oregon", "region_code": "OR", "county": "Washington County", "locality": "Tualatin", "administrative_area": null, "neighbourhood": null, "country": "United States", "country_code": "USA", "continent": "North America", "label": "Tualatin, OR, USA"}, {"latitude": 36.59649, "longitude": -82.18847, "type": "locality", "name": "Bristol", "number": null, "postal_code": null, "street": null, "confidence": 1, "region": "Virginia", "region_code": "VA", "county": "City of Bristol", "locality": "Bristol", "administrative_area": null, "neighbourhood": null, "country": "United States", "country_code": "USA", "continent": "North America", "label": "Bristol, VA, USA"}, {"latitude": 41.640072, "longitude": -88.445597, "type": "locality", "name": "Yorkville", "number": null, "postal_code": null, "street": null, "confidence": 1, "region": "Illinois", "region_code": "IL", "county": "Kendall County", "locality": "Yorkville", "administrative_area": "Kendall Township", "neighbourhood": null, "country": "United States", "country_code": "USA", "continent": "North America", "label": "Yorkville, IL, USA"}, {"latitude": 40.12551, "longitude": -74.865873, "type": "localadmin", "name": "Bristol Township", "number": null, "postal_code": null, "street": null, "confidence": 1, "region": "Pennsylvania", "region_code": "PA", "county": "Bucks County", "locality": null, "administrative_area": "Bristol Township", "neighbourhood": null, "country": "United States", "country_code": "USA", "continent": "North America", "label": "Bristol Township, PA, USA"}, {"latitude": 41.682624, "longitude": -88.446485, "type": "localadmin", "name": "Bristol Township", "number": null, "postal_code": null, "street": null, "confidence": 1, "region": "Illinois", "region_code": "IL", "county": "Kendall County", "locality": null, "administrative_area": "Bristol Township", "neighbourhood": null, "country": "United States", "country_code": "USA", "continent": "North America", "label": "Bristol Township, IL, USA"}, {"latitude": 41.688669, "longitude": -71.26534, "type": "localadmin", "name": "Bristol", "number": null, "postal_code": null, "street": null, "confidence": 1, "region": "Rhode Island", "region_code": "RI", "county": "Bristol County", "locality": null, "administrative_area": "Bristol", "neighbourhood": null, "country": "United States", "country_code": "USA", "continent": "North America", "label": "Bristol, RI, USA"}, {"latitude": 40.102869, "longitude": -74.852746, "type": "locality", "name": "Bristol", "number": null, "postal_code": null, "street": null, "confidence": 1, "region": "Pennsylvania", "region_code": "PA", "county": "Bucks County", "locality": "Bristol", "administrative_area": "Bristol", "neighbourhood": null, "country": "United States", "country_code": "USA", "continent": "North America", "label": "Bristol, PA, USA"}]}, "London": {"data": [{"latitude": 51.509648, "longitude": -0.099076, "type": "locality", "name": "London", "number": null, "postal_code": null, "street": null, "confidence": 1, "region": "Greater London", "region_code": null, "county": null, "locality": "London", "administrative_area": null, "neighbourhood": null, "country": "United Kingdom", "country_code": "GBR", "continent": "Europe", "label": "London, England, United Kingdom"}, {"latitude": 51.513263, "longitude": -0.089878, "type": "borough", "name": "City of London", "number": null, "postal_code": null, "street": null, "confidence": 1, "region": "Greater London", "region_code": null, "county": null, "locality": "London", "administrative_area": null, "neighbourhood": null, "country": "United Kingdom", "country_code": "GBR", "continent": "Europe", "label": "City of London, London, England, United Kingdom"}, {"latitude": 42.959033, "longitude": -81.235184, "type": "locality", "name": "London", "number": null, "postal_code": null, "street": null, "confidence": 1, "region": "Ontario", "region_code": "ON", "county": "Middlesex", "locality": "London", "administrative_area": null, "neighbourhood": null, "country": "Canada", "country_code": "CAN", "continent": "North America", "label": "London, ON, Canada"}, {"latitude": 39.891236, "longitude": -83.444225, "type": "locality", "name": "London", "number": null, "postal_code": null, "street": null, "confidence": 1, "region": "Ohio", "region_code": "OH", "county": "Madison County", "locality": "London", "administrative_area": "London", "neighbourhood": null, "country": "United States", "country_code": "USA", "continent": "North America", "label": "London, OH, USA"}, {"latitude": -24.30262, "longitude": 30.5725, "type": "locality", "name": "London", "number": null, "postal_code": null, "street": null, "confidence": 1, "region": "Limpopo", "region_code": "NP", "county": "Mopani", "locality": "London", "administrative_area": null, "neighbourhood": null, "country": "South Africa", "country_code": "ZAF", "continent": "Africa", "label": "London, NP, South Africa"}, {"latitude": 40.91033, "longitude": -82.62934, "type": "locality", "name": "London", "number": null, "postal_code": null, "street": null, "confidence": 1, "region": "Ohio", "region_code": "OH", "county": "Richland County", "locality": "London", "administrative_area": "Cass Township", "neighbourhood": null, "country": "United States", "country_code": "USA", "continent": "North America", "label": "London, OH, USA"}, {"latitude": 43.63457, "longitude": -123.09285, "type": "locality", "name": "London", "number": null, "postal_code": null, "street": null, "confidence": 1, "region": "Oregon", "region_code": "OR", "county": "Lane County", "locality": "London", "administrative_area": null, "neighbourhood": null, "country": "United States", "country_code": "USA", "continent": "North America", "label": "London, OR, USA"}, {"latitude": 7.65137, "longitude": -12.00293, "type": "locality", "name": "London", "number": null, "postal_code": null, "street": null, "confidence": 1, "region": "Southern", "region_code": "SO", "county": "Bo", "locality": "London", "administrative_area": null, "neighbourhood": null, "country": "Sierra Leone", "country_code": "SLE", "continent": "Africa", "label": "London, SO, Sierra Leone"}, {"latitude": 16.26487, "longitude": -61.48832, "type": "locality", "name": "London", "number": null, "postal_code": null, "street": null, "confidence": 1, "region": "Guadeloupe", "region_code": "GP", "county": null, "locality": "London", "administrative_area": null, "neighbourhood": null, "country": "France", "country_code": "FRA", "continent": "Europe", "label": "London, Guadeloupe"}, {"latitude": -24.76667, "longitude": 30.86667, "type": "locality", "name": "London", "number": null, "postal_code": null, "street": null, "confidence": 1, "region": "Mpumalanga", "region_code": "MP", "county": "Ehlanzeni", "locality": "London", "administrative_area": null, "neighbourhood": null, "country": "South Africa", "country_code": "ZAF", "continent": "Africa", "label": "London, MP, South Africa"}]}, "Alghero Sardinia": {"data": [{"latitude": 40.55685, "longitude": 8.322542, "type": "locality", "name": "Alghero", "number": null, "postal_code": null, "street": null, "confidence": 1, "region": "Sassari", "region_code": "SS", "county": null, "locality": "Alghero", "administrative_area": "Alghero", "neighbourhood": null, "country": "Italy", "country_code": "ITA", "continent": "Europe", "label": "Alghero, SS, Italy"}, {"latitude": 40.574904, "longitude": 8.32213, "type": "venue", "name": "Alghero", "number": null, "postal_code": null, "street": null, "confidence": 1, "region": "Sassari", "region_code": "SS", "county": null, "locality": "Alghero", "administrative_area": "Alghero", "neighbourhood": null, "country": "Italy", "country_code": "ITA", "continent": "Europe", "label": "Alghero, SS, Italy"}, {"latitude": 41.886418, "longitude": 12.521507, "type": "venue", "name": "Alghero", "number": null, "postal_code": null, "street": null, "confidence": 1, "region": "Rome", "region_code": "RM", "county": null, "locality": "Rome", "administrative_area": "Rome", "neighbourhood": "Appio-Latino", "country": "Italy", "country_code": "ITA", "continent": "Europe", "label": "Alghero, Rome, RM, Italy"}, {"latitude": 40.559307, "longitude": 8.316015, "type": "venue", "name": "Infopoint Alghero", "number": null, "postal_code": null, "street": null, "confidence": 1, "region": "Sassari", "region_code": "SS", "county": null, "locality": "Alghero", "administrative_area": "Alghero", "neighbourhood": null, "country": "Italy", "country_code": "ITA", "continent": "Europe", "label": "Infopoint Alghero, Alghero, SS, Italy"}, {"latitude": 40.557742, "longitude": 8.32625, "type": "venue", "name": "Alghero 1", "number": null, "postal_code": null, "street": null, "confidence": 1, "region": "Sassari", "region_code": "SS", "county": null, "locality": "Alghero", "administrative_area": "Alghero", "neighbourhood": null, "country": "Italy", "country_code": "ITA", "continent": "Europe", "label": "Alghero 1, Alghero, SS, Italy"}, {"latitude": 40.556167, "longitude": 8.317818, "type": "venue", "name": "Alghero Centro", "number": null, "postal_code": null, "street": null, "confidence": 1, "region": "Sassari", "region_code": "SS", "county": null, "locality": "Alghero", "administrative_area": "Alghero", "neighbourhood": null, "country": "Italy", "country_code": "ITA", "continent": "Europe", "label": "Alghero Centro, Alghero, SS, Italy"}, {"latitude": 44.402259, "longitude": 8.934191, "type": "venue", "name": "Carignano/Alghero", "number": null, "postal_code": null, "street": null, "confidence": 1, "region": "Genova", "region_code": "GE", "county": null, "locality": "Genoa", "administrative_area": "Genova", "neighbourhood": null, "country": "Italy", "country_code": "ITA", "continent": "Europe", "label": "Carignano/Alghero, Genoa, GE, Italy"}, {"latitude": 40.563096, "longitude": 8.319496, "type": "venue", "name": "Alghero City", "number": null, "postal_code": null, "street": null, "confidence": 1, "region": "Sassari", "region_code": "SS", "county": null, "locality": "Alghero", "administrative_area": "Alghero", "neighbourhood": null, "country": "Italy", "country_code": "ITA", "continent": "Europe", "label": "Alghero City, Alghero, SS, Italy"}, {"latitude": 40.569428, "longitude": 8.32226, "type": "venue", "name": "Alghero 2", "number": null, "postal_code": null, "street": null, "confidence": 1, "region": "Sassari", "region_code": "SS", "county": null, "locality": "Alghero", "administrative_area": "Alghero", "neighbourhood": null, "country": "Italy", "country_code": "ITA", "continent": "Europe", "label": "Alghero 2, Alghero, SS, Italy"}, {"latitude": 40.556765, "longitude": 8.316045, "type": "venue", "name": "Aquarium di Alghero", "number": "1D", "postal_code": "07041", "street": "Via 20 Settembre", "confidence": 1, "region": "Sassari", "region_code": "SS", "county": null, "locality": "Alghero", "administrative_area": "Alghero", "neighbourhood": null, "country": "Italy", "country_code": "ITA", "continent": "Europe", "label": "Aquarium di Alghero, Alghero, SS, Italy"}]}, "Bari": {"data": [{"latitude": 41.111267, "longitude": 16.861202, "type": "locality", "name": "Bari", "number": null, "postal_code": null, "street": null, "confidence": 1, "region": "Bari", "region_code": "BA", "county": null, "locality": "Bari", "administrative_area": "Bari", "neighbourhood": null, "country": "Italy", "country_code": "ITA", "continent": "Europe", "label": "Bari, BA, Italy"}, {"latitude": 10.268411, "longitude": 49.950034, "type": "region", "name": "Bari", "number": null, "postal_code": null, "street": null, "confidence": 0.3, "region": "Bari", "region_code": "BR", "county": null, "locality": null, "administrative_area": null, "neighbourhood": null, "country": "Somalia", "country_code": "SOM", "continent": "Africa", "label": "Bari, Somalia"}, {"latitude": 44.353668, "longitude": -79.705957, "type": "locality", "name": "Barrie", "number": null, "postal_code": null, "street": null, "confidence": 1, "region": "Ontario", "region_code": "ON", "county": "Simcoe", "locality": "Barrie", "administrative_area": null, "neighbourhood": null, "country": "Canada", "country_code": "CAN", "continent": "North America", "label": "Barrie, ON, Canada"}, {"latitude": 26.64661, "longitude": 77.61634, "type": "locality", "name": "Bari", "number": null, "postal_code": null, "street": null, "confidence": 1, "region": "Rajasthan", "region_code": "RJ", "county": "Dholpur", "locality": "Bari", "administrative_area": null, "neighbourhood": null, "country": "India", "country_code": "IND", "continent": "Asia", "label": "Bari, RJ, India"}, {"latitude": 21.65685, "longitude": 85.64349, "type": "locality", "name": "Bari", "number": null, "postal_code": null, "street": null, "confidence": 1, "region": "Odisha", "region_code": "OR", "county": "Keonjhar", "locality": "Bari", "administrative_area": null, "neighbourhood": null, "country": "India", "country_code": "IND", "continent": "Asia", "label": "Bari, OR, India"}, {"latitude": 36.712985, "longitude": -93.82903, "type": "county", "name": "Barry County", "number": null, "postal_code": null, "street": null, "confidence": 0.4, "region": "Missouri", "region_code": "MO", "county": "Barry County", "locality": null, "administrative_area": null, "neighbourhood": null, "country": "United States", "country_code": "USA", "continent": "North America", "label": "Barry County, MO, USA"}, {"latitude": 50.445391, "longitude": -104.545957, "type": "macrohood", "name": "East", "number": null, "postal_code": null, "street": null, "confidence": 0.1, "region": "Saskatchewan", "region_code": "SK", "county": "Division No. 6", "locality": "Regina", "administrative_area": null, "neighbourhood": null, "country": "Canada", "country_code": "CAN", "continent": "North America", "label": "East, Regina, SK, Canada"}, {"latitude": 35.68065, "longitude": 74.35441, "type": "locality", "name": "Bari", "number": null, "postal_code": null, "street": null, "confidence": 1, "region": "Gilgit Baltistan", "region_code": "NA", "county": "Gilgit", "locality": "Bari", "administrative_area": null, "neighbourhood": null, "country": "Pakistan", "country_code": "PAK", "continent": "Asia", "label": "Bari, NA, Pakistan"}, {"latitude": 9.0382, "longitude": 14.0664, "type": "locality", "name": "Bari", "number": null, "postal_code": null, "street": null, "confidence": 1, "region": "North Province", "region_code": "NO", "county": "Mayo-Rey", "locality": "Bari", "administrative_area": null, "neighbourhood": null, "country": "Cameroon", "country_code": "CMR", "continent": "Africa", "label": "Bari, NO, Cameroon"}, {"latitude": 27.60055, "longitude": 78.36607, "type": "locality", "name": "Bari", "number": null, "postal_code": null, "street": null, "confidence": 1, "region": "Uttar Pradesh", "region_code": "UP", "county": "Hathras", "locality": "Bari", "administrative_area": null, "neighbourhood": null, "country": "India", "country_code": "IND", "continent": "Asia", "label": "Bari, UP, India"}]}, "Trapani": {"data": [{"latitude": 38.010565, "longitude": 12.545514, "type": "locality", "name": "Trapani", "number": null, "postal_code": null, "street": null, "confidence": 1, "region": "Trapani", "region_code": "TP", "county": null, "locality": "Trapani", "administrative_area": "Trapani", "neighbourhood": null, "country": "Italy", "country_code": "ITA", "continent": "Europe", "label": "Trapani, TP, Italy"}]}, "Amsterdam": {"data": [{"latitude": 52.37243, "longitude": 4.89973, "type": "locality", "name": "Amsterdam", "number": null, "postal_code": null, "street": null, "confidence": 1, "region": "Noord-Holland", "region_code": "NH", "county": null, "locality": "Amsterdam", "administrative_area": null, "neighbourhood": null, "country": "Netherlands", "country_code": "NLD", "continent": "Europe", "label": "Amsterdam, NH, Netherlands"}, {"latitude": -37.858496, "longitude": 77.535552, "type": "region", "name": "Iles Saint-Paul et Nouvelle-Amsterdam", "number": null, "postal_code": null, "street": null, "confidence": 0.3, "region": "Iles Saint-Paul et Nouvelle-Amsterdam", "region_code": "AS", "county": null, "locality": null, "administrative_area": null, "neighbourhood": null, "country": null, "country_code": null, "continent": "Seven Seas", "label": "Iles Saint-Paul et Nouvelle-Amsterdam, French Southern and Antarctic Lands"}, {"latitude": 42.940648, "longitude": -74.196108, "type": "locality", "name": "Amsterdam", "number": null, "postal_code": null, "street": null, "confidence": 1, "region": "New York", "region_code": "NY", "county": "Montgomery County", "locality": "Amsterdam", "administrative_area": "Amsterdam", "neighbourhood": null, "country": "United States", "country_code": "USA", "continent": "North America", "label": "Amsterdam, NY, USA"}, {"latitude": 42.775733, "longitude": -73.71503, "type": "locality", "name": "Cohoes", "number": null, "postal_code": null, "street": null, "confidence": 1, "region": "New York", "region_code": "NY", "county": "Albany County", "locality": "Cohoes", "administrative_area": "Cohoes", "neighbourhood": null, "country": "United States", "country_code": "USA", "continent": "North America", "label": "Cohoes, NY, USA"}, {"latitude": 43.316707, "longitude": -76.41609, "type": "locality", "name": "Fulton", "number": null, "postal_code": null, "street": null, "confidence": 1, "region": "New York", "region_code": "NY", "county": "Oswego County", "locality": "Fulton", "administrative_area": "Fulton", "neighbourhood": null, "country": "United States", "country_code": "USA", "continent": "North America", "label": "Fulton, NY, USA"}, {"latitude": 42.948396, "longitude": -74.13232, "type": "localadmin", "name": "Amsterdam", "number": null, "postal_code": null, "street": null, "confidence": 1, "region": "New York", "region_code": "NY", "county": "Montgomery County", "locality": null, "administrative_area": "Amsterdam", "neighbourhood": null, "country": "United States", "country_code": "USA", "continent": "North America", "label": "Amsterdam, NY, USA"}, {"latitude": 6.597469, "longitude": -58.307977, "type": "county", "name": "Amsterdam (Dem River) / Vriesland", "number": null, "postal_code": null, "street": null, "confidence": 0.4, "region": "Mahaica-Berbice", "region_code": "MA", "county": "Amsterdam (Dem River) / Vriesland", "locality": null, "administrative_area": null, "neighbourhood": null, "country": "Guyana", "country_code": "GUY", "continent": "South America", "label": "Amsterdam (Dem River) / Vriesland, MA, Guyana"}, {"latitude": -31.62809, "longitude": 25.62113, "type": "locality", "name": "Amsterdam", "number": null, "postal_code": null, "street": null, "confidence": 1, "region": "Eastern Cape", "region_code": "EC", "county": "Chris Hani", "locality": "Amsterdam", "administrative_area": null, "neighbourhood": null, "country": "South Africa", "country_code": "ZAF", "continent": "Africa", "label": "Amsterdam, EC, South Africa"}, {"latitude": 4.97783, "longitude": -73.90324, "type": "locality", "name": "Amsterdam", "number": null, "postal_code": null, "street": null, "confidence": 1, "region": "Cundinamarca", "region_code": "CU", "county": "Tocancip\u00e1", "locality": "Amsterdam", "administrative_area": null, "neighbourhood": null, "country": "Colombia", "country_code": "COL", "continent": "South America", "label": "Amsterdam, CU, Colombia"}, {"latitude": 41.13395, "longitude": -80.13367, "type": "locality", "name": "Amsterdam", "number": null, "postal_code": null, "street": null, "confidence": 1, "region": "Pennsylvania", "region_code": "PA", "county": "Mercer County", "locality": "Amsterdam", "administrative_area": "Liberty Township", "neighbourhood": null, "country": "United States", "country_code": "USA", "continent": "North America", "label": "Amsterdam, PA, USA"}]}, "Thessaloniki": {"data": [{"latitude": 40.656485, "longitude": 22.937343, "type": "locality", "name": "Thessaloniki", "number": null, "postal_code": null, "street": null, "confidence": 1, "region": "Central Macedonia", "region_code": "MC", "county": null, "locality": "Thessaloniki", "administrative_area": null, "neighbourhood": null, "country": "Greece", "country_code": "GRC", "continent": "Europe", "label": "Thessaloniki, MC, Greece"}]}, "Fes": {"data": [{"latitude": 34.03715, "longitude": -4.9998, "type": "locality", "name": "Fes", "number": null, "postal_code": null, "street": null, "confidence": 1, "region": "Fes-Boulemane", "region_code": null, "county": "Fez", "locality": "Fes", "administrative_area": null, "neighbourhood": null, "country": "Morocco", "country_code": "MAR", "continent": "Africa", "label": "Fes, Morocco"}, {"latitude": 33.390155, "longitude": -4.481321, "type": "region", "name": "Fes-Boulemane", "number": null, "postal_code": null, "street": null, "confidence": 0.3, "region": "Fes-Boulemane", "region_code": null, "county": null, "locality": null, "administrative_area": null, "neighbourhood": null, "country": "Morocco", "country_code": "MAR", "continent": "Africa", "label": "Fes-Boulemane, Morocco"}, {"latitude": 33.984911, "longitude": -4.941731, "type": "county", "name": "Fez", "number": null, "postal_code": null, "street": null, "confidence": 0.4, "region": "Fes-Boulemane", "region_code": null, "county": "Fez", "locality": null, "administrative_area": null, "neighbourhood": null, "country": "Morocco", "country_code": "MAR", "continent": "Africa", "label": "Fez, Morocco"}, {"latitude": 47.2441, "longitude": 2.83495, "type": "locality", "name": "Fez", "number": null, "postal_code": null, "street": null, "confidence": 1, "region": "Cher", "region_code": "CH", "county": "Sancerre", "locality": "Fez", "administrative_area": "Feux", "neighbourhood": null, "country": "France", "country_code": "FRA", "continent": "Europe", "label": "Fez, France"}, {"latitude": -5.6114, "longitude": 138.75305, "type": "locality", "name": "Fos", "number": null, "postal_code": null, "street": null, "confidence": 1, "region": "Papua", "region_code": "PA", "county": "Asmat", "locality": "Fos", "administrative_area": null, "neighbourhood": null, "country": "Indonesia", "country_code": "IDN", "continent": "Asia", "label": "Fos, PA, Indonesia"}]}, "Podgorica": {"data": [{"latitude": 42.44111, "longitude": 19.26361, "type": "locality", "name": "Podgorica", "number": null, "postal_code": null, "street": null, "confidence": 1, "region": "Podgorica", "region_code": "PG", "county": null, "locality": "Podgorica", "administrative_area": null, "neighbourhood": null, "country": "Montenegro", "country_code": "MNE", "continent": "Europe", "label": "Podgorica, Montenegro"}, {"latitude": 45.11472, "longitude": 16.48639, "type": "locality", "name": "Podgorica", "number": null, "postal_code": null, "street": null, "confidence": 1, "region": "Republic of Srpska", "region_code": null, "county": "Bosanski Novi / Novi Grad", "locality": "Podgorica", "administrative_area": null, "neighbourhood": null, "country": "Bosnia and Herzegovina", "country_code": "BIH", "continent": "Europe", "label": "Podgorica, Bosnia and Herzegovina"}, {"latitude": 43.1578, "longitude": 18.00539, "type": "locality", "name": "Podgorica", "number": null, "postal_code": null, "street": null, "confidence": 1, "region": "Republic of Srpska", "region_code": null, "county": "Stolac", "locality": "Podgorica", "administrative_area": null, "neighbourhood": null, "country": "Bosnia and Herzegovina", "country_code": "BIH", "continent": "Europe", "label": "Podgorica, Bosnia and Herzegovina"}, {"latitude": 43.77544, "longitude": 19.68229, "type": "locality", "name": "Podgorica", "number": null, "postal_code": null, "street": null, "confidence": 1, "region": "Zlatiborski upravni okrug", "region_code": "ZL", "county": null, "locality": "Podgorica", "administrative_area": "Cajetina", "neighbourhood": null, "country": "Serbia", "country_code": "SRB", "continent": "Europe", "label": "Podgorica, ZL, Serbia"}, {"latitude": 44.57761, "longitude": 16.20701, "type": "locality", "name": "Podgorica", "number": null, "postal_code": null, "street": null, "confidence": 1, "region": "Una-Sana", "region_code": "ZD", "county": "Bosanski Petrovac", "locality": "Podgorica", "administrative_area": null, "neighbourhood": null, "country": "Bosnia and Herzegovina", "country_code": "BIH", "continent": "Europe", "label": "Podgorica, ZD, Bosnia and Herzegovina"}, {"latitude": 46.06286, "longitude": 15.30043, "type": "locality", "name": "Podgorica", "number": null, "postal_code": null, "street": null, "confidence": 1, "region": "Spodnjeposavska", "region_code": null, "county": null, "locality": "Podgorica", "administrative_area": "Sevnica", "neighbourhood": null, "country": "Slovenia", "country_code": "SVN", "continent": "Europe", "label": "Podgorica, Slovenia"}, {"latitude": 45.84467, "longitude": 14.70326, "type": "locality", "name": "Podgorica", "number": null, "postal_code": null, "street": null, "confidence": 1, "region": "Osrednjeslovenska", "region_code": null, "county": null, "locality": "Podgorica", "administrative_area": "Dobrepolje", "neighbourhood": null, "country": "Slovenia", "country_code": "SVN", "continent": "Europe", "label": "Podgorica, Slovenia"}]}, "Munich": {"data": [{"latitude": 48.152126, "longitude": 11.544467, "type": "locality", "name": "Munich", "number": null, "postal_code": null, "street": null, "confidence": 1, "region": "Bavaria", "region_code": "BY", "county": "Munich", "locality": "Munich", "administrative_area": "M\u00fcnchen", "neighbourhood": null, "country": "Germany", "country_code": "DEU", "continent": "Europe", "label": "Munich, BY, Germany"}, {"latitude": 12.08206, "longitude": -61.64453, "type": "locality", "name": "Munich", "number": null, "postal_code": null, "street": null, "confidence": 1, "region": "Saint David", "region_code": "DA", "county": null, "locality": "Munich", "administrative_area": null, "neighbourhood": null, "country": "Grenada", "country_code": "GRD", "continent": "North America", "label": "Munich, DA, Grenada"}, {"latitude": 48.669345, "longitude": -98.834282, "type": "locality", "name": "Munich", "number": null, "postal_code": null, "street": null, "confidence": 1, "region": "North Dakota", "region_code": "ND", "county": "Cavalier County", "locality": "Munich", "administrative_area": "Munich", "neighbourhood": null, "country": "United States", "country_code": "USA", "continent": "North America", "label": "Munich, ND, USA"}]}, "Naples": {"data": [{"latitude": 40.862838, "longitude": 14.237375, "type": "locality", "name": "Naples", "number": null, "postal_code": null, "street": null, "confidence": 1, "region": "Napoli", "region_code": "NA", "county": null, "locality": "Naples", "administrative_area": "Naples", "neighbourhood": null, "country": "Italy", "country_code": "ITA", "continent": "Europe", "label": "Naples, NA, Italy"}, {"latitude": 40.869108, "longitude": 14.438695, "type": "region", "name": "Napoli", "number": null, "postal_code": null, "street": null, "confidence": 0.3, "region": "Napoli", "region_code": "NA", "county": null, "locality": null, "administrative_area": null, "neighbourhood": null, "country": "Italy", "country_code": "ITA", "continent": "Europe", "label": "Napoli, Italy"}, {"latitude": 26.147496, "longitude": -81.797101, "type": "locality", "name": "Naples", "number": null, "postal_code": null, "street": null, "confidence": 1, "region": "Florida", "region_code": "FL", "county": "Collier County", "locality": "Naples", "administrative_area": null, "neighbourhood": null, "country": "United States", "country_code": "USA", "continent": "North America", "label": "Naples, FL, USA"}, {"latitude": 54.21685, "longitude": -114.26881, "type": "locality", "name": "Naples", "number": null, "postal_code": null, "street": null, "confidence": 1, "region": "Alberta", "region_code": "AB", "county": "Barrhead No. 11", "locality": "Naples", "administrative_area": null, "neighbourhood": null, "country": "Canada", "country_code": "CAN", "continent": "North America", "label": "Naples, AB, Canada"}, {"latitude": 38.43591, "longitude": -82.76961, "type": "locality", "name": "Naples", "number": null, "postal_code": null, "street": null, "confidence": 1, "region": "Kentucky", "region_code": "KY", "county": "Greenup County", "locality": "Naples", "administrative_area": null, "neighbourhood": null, "country": "United States", "country_code": "USA", "continent": "North America", "label": "Naples, KY, USA"}, {"latitude": 43.86478, "longitude": -76.20187, "type": "locality", "name": "Henderson Harbor", "number": null, "postal_code": null, "street": null, "confidence": 1, "region": "New York", "region_code": "NY", "county": "Jefferson County", "locality": "Henderson Harbor", "administrative_area": "Henderson", "neighbourhood": null, "country": "United States", "country_code": "USA", "continent": "North America", "label": "Henderson Harbor, NY, USA"}, {"latitude": 35.39262, "longitude": -82.50068, "type": "locality", "name": "Naples", "number": null, "postal_code": null, "street": null, "confidence": 1, "region": "North Carolina", "region_code": "NC", "county": "Henderson County", "locality": "Naples", "administrative_area": null, "neighbourhood": null, "country": "United States", "country_code": "USA", "continent": "North America", "label": "Naples, NC, USA"}, {"latitude": 48.57104, "longitude": -116.39242, "type": "locality", "name": "Naples", "number": null, "postal_code": null, "street": null, "confidence": 1, "region": "Idaho", "region_code": "ID", "county": "Boundary County", "locality": "Naples", "administrative_area": null, "neighbourhood": null, "country": "United States", "country_code": "USA", "continent": "North America", "label": "Naples, ID, USA"}, {"latitude": 34.44083, "longitude": -119.95903, "type": "locality", "name": "Naples", "number": null, "postal_code": null, "street": null, "confidence": 1, "region": "California", "region_code": "CA", "county": "Santa Barbara County", "locality": "Naples", "administrative_area": null, "neighbourhood": null, "country": "United States", "country_code": "USA", "continent": "North America", "label": "Naples, CA, USA"}, {"latitude": 39.753099, "longitude": -90.606763, "type": "locality", "name": "Naples", "number": null, "postal_code": null, "street": null, "confidence": 1, "region": "Illinois", "region_code": "IL", "county": "Scott County", "locality": "Naples", "administrative_area": "Naples-Bluffs", "neighbourhood": null, "country": "United States", "country_code": "USA", "continent": "North America", "label": "Naples, IL, USA"}]}, "Bordeaux": {"data": [{"latitude": 44.842411, "longitude": -0.570437, "type": "locality", "name": "Bordeaux", "number": null, "postal_code": null, "street": null, "confidence": 1, "region": "Gironde", "region_code": "GI", "county": "Bordeaux", "locality": "Bordeaux", "administrative_area": "Bordeaux", "neighbourhood": null, "country": "France", "country_code": "FRA", "continent": "Europe", "label": "Bordeaux, France"}, {"latitude": 35.11426, "longitude": -94.87356, "type": "locality", "name": "Bordeaux", "number": null, "postal_code": null, "street": null, "confidence": 1, "region": "Oklahoma", "region_code": "OK", "county": "Le Flore County", "locality": "Bordeaux", "administrative_area": null, "neighbourhood": null, "country": "United States", "country_code": "USA", "continent": "North America", "label": "Bordeaux, OK, USA"}, {"latitude": -0.82841, "longitude": 10.18358, "type": "locality", "name": "Bordeaux", "number": null, "postal_code": null, "street": null, "confidence": 1, "region": "Moyen-Ogoou\u00e9 Province", "region_code": "MO", "county": "Ogoou\u00e9 et Lacs", "locality": "Bordeaux", "administrative_area": null, "neighbourhood": null, "country": "Gabon", "country_code": "GAB", "continent": "Africa", "label": "Bordeaux, MO, Gabon"}, {"latitude": 42.76803, "longitude": -102.81406, "type": "locality", "name": "Bordeaux", "number": null, "postal_code": null, "street": null, "confidence": 1, "region": "Nebraska", "region_code": "NE", "county": "Dawes County", "locality": "Bordeaux", "administrative_area": "06", "neighbourhood": null, "country": "United States", "country_code": "USA", "continent": "North America", "label": "Bordeaux, NE, USA"}, {"latitude": -1.66964, "longitude": 13.62738, "type": "locality", "name": "Bordeaux", "number": null, "postal_code": null, "street": null, "confidence": 1, "region": "Haut-Ogoou\u00e9 Province", "region_code": "HO", "county": "Mpassa", "locality": "Bordeaux", "administrative_area": null, "neighbourhood": null, "country": "Gabon", "country_code": "GAB", "continent": "Africa", "label": "Bordeaux, HO, Gabon"}, {"latitude": 41.93608, "longitude": -104.84469, "type": "locality", "name": "Bordeaux", "number": null, "postal_code": null, "street": null, "confidence": 1, "region": "Wyoming", "region_code": "WY", "county": "Platte County", "locality": "Bordeaux", "administrative_area": null, "neighbourhood": null, "country": "United States", "country_code": "USA", "continent": "North America", "label": "Bordeaux, WY, USA"}, {"latitude": 46.89482, "longitude": -123.08014, "type": "locality", "name": "Bordeaux", "number": null, "postal_code": null, "street": null, "confidence": 1, "region": "Washington", "region_code": "WA", "county": "Thurston County", "locality": "Bordeaux", "administrative_area": null, "neighbourhood": null, "country": "United States", "country_code": "USA", "continent": "North America", "label": "Bordeaux, WA, USA"}, {"latitude": 33.92651, "longitude": -82.42068, "type": "locality", "name": "Bordeaux", "number": null, "postal_code": null, "street": null, "confidence": 1, "region": "South Carolina", "region_code": "SC", "county": "McCormick County", "locality": "Bordeaux", "administrative_area": null, "neighbourhood": null, "country": "United States", "country_code": "USA", "continent": "North America", "label": "Bordeaux, SC, USA"}, {"latitude": 49.48972, "longitude": -2.50944, "type": "locality", "name": "Bordeaux", "number": null, "postal_code": null, "street": null, "confidence": 1, "region": "Guernsey", "region_code": null, "county": null, "locality": "Bordeaux", "administrative_area": null, "neighbourhood": null, "country": "Guernsey", "country_code": "GGY", "continent": "Europe", "label": "Bordeaux, Guernsey"}, {"latitude": 18.33523, "longitude": -64.72097, "type": "locality", "name": "Bordeaux", "number": null, "postal_code": null, "street": null, "confidence": 1, "region": "Saint John Island", "region_code": "SJ", "county": null, "locality": "Bordeaux", "administrative_area": null, "neighbourhood": null, "country": null, "country_code": null, "continent": "North America", "label": "Bordeaux, US Virgin Islands"}]}, "Riga": {"data": [{"latitude": 56.971149, "longitude": 24.142749, "type": "locality", "name": "Riga", "number": null, "postal_code": null, "street": null, "confidence": 1, "region": "Riga", "region_code": "RA", "county": null, "locality": "Riga", "administrative_area": null, "neighbourhood": null, "country": "Latvia", "country_code": "LVA", "continent": "Europe", "label": "Riga, Latvia"}, {"latitude": 43.082811, "longitude": -77.875253, "type": "localadmin", "name": "Riga", "number": null, "postal_code": null, "street": null, "confidence": 1, "region": "New York", "region_code": "NY", "county": "Monroe County", "locality": null, "administrative_area": "Riga", "neighbourhood": null, "country": "United States", "country_code": "USA", "continent": "North America", "label": "Riga, NY, USA"}, {"latitude": 31.1239, "longitude": 84.369, "type": "locality", "name": "Riga", "number": null, "postal_code": null, "street": null, "confidence": 1, "region": "Tibet", "region_code": "XZ", "county": "Rikaze", "locality": "Riga", "administrative_area": null, "neighbourhood": null, "country": "China", "country_code": "CHN", "continent": "Asia", "label": "Riga, XZ, China"}, {"latitude": 7.35646, "longitude": 9.34369, "type": "locality", "name": "Riga", "number": null, "postal_code": null, "street": null, "confidence": 1, "region": "Benue", "region_code": "BE", "county": "Katsina-Ala", "locality": "Riga", "administrative_area": null, "neighbourhood": null, "country": "Nigeria", "country_code": "NGA", "continent": "Africa", "label": "Riga, BE, Nigeria"}, {"latitude": 30.03557, "longitude": 92.87557, "type": "locality", "name": "Riga", "number": null, "postal_code": null, "street": null, "confidence": 1, "region": "Tibet", "region_code": "XZ", "county": "Linzhi", "locality": "Riga", "administrative_area": null, "neighbourhood": null, "country": "China", "country_code": "CHN", "continent": "Asia", "label": "Riga, XZ, China"}, {"latitude": 34.0924, "longitude": 67.36896, "type": "locality", "name": "Riga", "number": null, "postal_code": null, "street": null, "confidence": 1, "region": "Ghazni", "region_code": "GZ", "county": "Nawur", "locality": "Riga", "administrative_area": null, "neighbourhood": null, "country": "Afghanistan", "country_code": "AFG", "continent": "Asia", "label": "Riga, GZ, Afghanistan"}, {"latitude": 12.98745, "longitude": 9.8012, "type": "locality", "name": "Riga", "number": null, "postal_code": null, "street": null, "confidence": 1, "region": "Zinder", "region_code": "ZI", "county": "Magaria", "locality": "Riga", "administrative_area": null, "neighbourhood": null, "country": "Niger", "country_code": "NER", "continent": "Africa", "label": "Riga, ZI, Niger"}, {"latitude": 53.6856, "longitude": 50.01435, "type": "locality", "name": "Riga", "number": null, "postal_code": null, "street": null, "confidence": 1, "region": "Samara", "region_code": "SA", "county": "Krasnojarskiy", "locality": "Riga", "administrative_area": null, "neighbourhood": null, "country": "Russia", "country_code": "RUS", "continent": "Europe", "label": "Riga, SA, Russia"}, {"latitude": 14.1941, "longitude": 9.575, "type": "locality", "name": "Riga", "number": null, "postal_code": null, "street": null, "confidence": 1, "region": "Zinder", "region_code": "ZI", "county": "Miria", "locality": "Riga", "administrative_area": null, "neighbourhood": null, "country": "Niger", "country_code": "NER", "continent": "Africa", "label": "Riga, ZI, Niger"}, {"latitude": 28.45153, "longitude": 82.78249, "type": "locality", "name": "Riga", "number": null, "postal_code": null, "street": null, "confidence": 1, "region": "Five", "region_code": "FI", "county": "Rolpa", "locality": "Riga", "administrative_area": null, "neighbourhood": null, "country": "Nepal", "country_code": "NPL", "continent": "Asia", "label": "Riga, FI, Nepal"}]}, "Paris": {"data": [{"latitude": 48.858705, "longitude": 2.342865, "type": "locality", "name": "Paris", "number": null, "postal_code": null, "street": null, "confidence": 1, "region": "Paris", "region_code": "VP", "county": null, "locality": "Paris", "administrative_area": "Paris", "neighbourhood": null, "country": "France", "country_code": "FRA", "continent": "Europe", "label": "Paris, France"}, {"latitude": 33.659317, "longitude": -95.561576, "type": "locality", "name": "Paris", "number": null, "postal_code": null, "street": null, "confidence": 1, "region": "Texas", "region_code": "TX", "county": "Lamar County", "locality": "Paris", "administrative_area": null, "neighbourhood": null, "country": "United States", "country_code": "USA", "continent": "North America", "label": "Paris, TX, USA"}, {"latitude": 43.2, "longitude": -80.38333, "type": "locality", "name": "Paris", "number": null, "postal_code": null, "street": null, "confidence": 1, "region": "Ontario", "region_code": "ON", "county": "Brant", "locality": "Paris", "administrative_area": null, "neighbourhood": null, "country": "Canada", "country_code": "CAN", "continent": "North America", "label": "Paris, ON, Canada"}, {"latitude": 36.292232, "longitude": -88.303134, "type": "locality", "name": "Paris", "number": null, "postal_code": null, "street": null, "confidence": 1, "region": "Tennessee", "region_code": "TN", "county": "Henry County", "locality": "Paris", "administrative_area": null, "neighbourhood": null, "country": "United States", "country_code": "USA", "continent": "North America", "label": "Paris, TN, USA"}, {"latitude": 32.595866, "longitude": -82.337946, "type": "locality", "name": "Swainsboro", "number": null, "postal_code": null, "street": null, "confidence": 1, "region": "Georgia", "region_code": "GA", "county": "Emanuel County", "locality": "Swainsboro", "administrative_area": null, "neighbourhood": null, "country": "United States", "country_code": "USA", "continent": "North America", "label": "Swainsboro, GA, USA"}, {"latitude": 40.244349, "longitude": -83.375382, "type": "localadmin", "name": "Paris Township", "number": null, "postal_code": null, "street": null, "confidence": 1, "region": "Ohio", "region_code": "OH", "county": "Union County", "locality": null, "administrative_area": "Paris Township", "neighbourhood": null, "country": "United States", "country_code": "USA", "continent": "North America", "label": "Paris Township, OH, USA"}, {"latitude": 39.632458, "longitude": -87.708895, "type": "localadmin", "name": "Paris Township", "number": null, "postal_code": null, "street": null, "confidence": 1, "region": "Illinois", "region_code": "IL", "county": "Edgar County", "locality": null, "administrative_area": "Paris Township", "neighbourhood": null, "country": "United States", "country_code": "USA", "continent": "North America", "label": "Paris Township, IL, USA"}, {"latitude": 40.771368, "longitude": -81.141398, "type": "localadmin", "name": "Paris Township", "number": null, "postal_code": null, "street": null, "confidence": 1, "region": "Ohio", "region_code": "OH", "county": "Stark County", "locality": null, "administrative_area": "Paris Township", "neighbourhood": null, "country": "United States", "country_code": "USA", "continent": "North America", "label": "Paris Township, OH, USA"}, {"latitude": 44.246666, "longitude": -70.487196, "type": "localadmin", "name": "Paris", "number": null, "postal_code": null, "street": null, "confidence": 1, "region": "Maine", "region_code": "ME", "county": "Oxford County", "locality": null, "administrative_area": "Paris", "neighbourhood": null, "country": "United States", "country_code": "USA", "continent": "North America", "label": "Paris, ME, USA"}, {"latitude": 42.2386, "longitude": -91.57906, "type": "locality", "name": "Paris", "number": null, "postal_code": null, "street": null, "confidence": 1, "region": "Iowa", "region_code": "IA", "county": "Linn County", "locality": "Paris", "administrative_area": null, "neighbourhood": null, "country": "United States", "country_code": "USA", "continent": "North America", "label": "Paris, IA, USA"}]}, "Kyiv": {"data": [{"latitude": 50.469863, "longitude": 30.431971, "type": "locality", "name": "Kiev City", "number": null, "postal_code": null, "street": null, "confidence": 1, "region": "Kiev", "region_code": "KV", "county": "Pechers'kyi", "locality": "Kiev City", "administrative_area": null, "neighbourhood": null, "country": "Ukraine", "country_code": "UKR", "continent": "Europe", "label": "Kiev City, KV, Ukraine"}, {"latitude": 50.121609, "longitude": 30.435489, "type": "region", "name": "Kiev", "number": null, "postal_code": null, "street": null, "confidence": 0.3, "region": "Kiev", "region_code": "KV", "county": null, "locality": null, "administrative_area": null, "neighbourhood": null, "country": "Ukraine", "country_code": "UKR", "continent": "Europe", "label": "Kiev, Ukraine"}, {"latitude": 46.322377, "longitude": 34.156943, "type": "locality", "name": "Kiev", "number": null, "postal_code": null, "street": null, "confidence": 1, "region": "Kherson", "region_code": "KS", "county": "Novotroits'kyi", "locality": "Kiev", "administrative_area": null, "neighbourhood": null, "country": "Ukraine", "country_code": "UKR", "continent": "Europe", "label": "Kiev, KS, Ukraine"}]}, "Nowy Dwor Mazowiecki": {"data": [{"latitude": 52.428542, "longitude": 20.718771, "type": "locality", "name": "Nowy Dw\u00f3r Mazowiecki", "number": null, "postal_code": null, "street": null, "confidence": 1, "region": "Mazowieckie", "region_code": "MZ", "county": "Nowodworski", "locality": "Nowy Dw\u00f3r Mazowiecki", "administrative_area": "Nowy Dw\u00f3r Mazowiecki", "neighbourhood": null, "country": "Poland", "country_code": "POL", "continent": "Europe", "label": "Nowy Dw\u00f3r Mazowiecki, MZ, Poland"}]}, "Bucharest": {"data": [{"latitude": 44.43225, "longitude": 26.10626, "type": "locality", "name": "Bucharest", "number": null, "postal_code": null, "street": null, "confidence": 1, "region": "Bucharest", "region_code": "BI", "county": null, "locality": "Bucharest", "administrative_area": null, "neighbourhood": null, "country": "Romania", "country_code": "ROU", "continent": "Europe", "label": "Bucharest, Romania"}]}, "Dusseldorf": {"data": [{"latitude": 51.226297, "longitude": 6.801324, "type": "locality", "name": "Dusseldorf", "number": null, "postal_code": null, "street": null, "confidence": 1, "region": "North Rhine-Westphalia", "region_code": "NW", "county": "D\u00fcsseldorf", "locality": "Dusseldorf", "administrative_area": "D\u00fcsseldorf", "neighbourhood": null, "country": "Germany", "country_code": "DEU", "continent": "Europe", "label": "Dusseldorf, NW, Germany"}, {"latitude": 51.426532, "longitude": 6.549287, "type": "macrocounty", "name": "D\u00fcsseldorf Government Region", "number": null, "postal_code": null, "street": null, "confidence": 0.4, "region": "North Rhine-Westphalia", "region_code": "NW", "county": null, "locality": null, "administrative_area": null, "neighbourhood": null, "country": "Germany", "country_code": "DEU", "continent": "Europe", "label": "D\u00fcsseldorf Government Region, NW, Germany"}]}, "Lamezia Terme": {"data": [{"latitude": 38.96589, "longitude": 16.3092, "type": "locality", "name": "Lamezia Terme", "number": null, "postal_code": null, "street": null, "confidence": 1, "region": "Catanzaro", "region_code": "CZ", "county": null, "locality": "Lamezia Terme", "administrative_area": "Lamezia Terme", "neighbourhood": null, "country": "Italy", "country_code": "ITA", "continent": "Europe", "label": "Lamezia Terme, CZ, Italy"}]}, "Tirana": {"data": [{"latitude": 41.282045, "longitude": 19.799067, "type": "region", "name": "Tiran\u00eb", "number": null, "postal_code": null, "street": null, "confidence": 0.3, "region": "Tiran\u00eb", "region_code": "TI", "county": null, "locality": null, "administrative_area": null, "neighbourhood": null, "country": "Albania", "country_code": "ALB", "continent": "Europe", "label": "Tiran\u00eb, Albania"}, {"latitude": 41.3274, "longitude": 19.818599, "type": "locality", "name": "Tirana", "number": null, "postal_code": null, "street": null, "confidence": 1, "region": "Tiran\u00eb", "region_code": "TI", "county": "Tirana", "locality": "Tirana", "administrative_area": null, "neighbourhood": null, "country": "Albania", "country_code": "ALB", "continent": "Europe", "label": "Tirana, TI, Albania"}, {"latitude": 6.82861, "longitude": -75.56111, "type": "locality", "name": "La Tirana", "number": null, "postal_code": null, "street": null, "confidence": 1, "region": "Antioquia", "region_code": "AN", "county": "Santa Rosa De Osos", "locality": "La Tirana", "administrative_area": null, "neighbourhood": null, "country": "Colombia", "country_code": "COL", "continent": "South America", "label": "La Tirana, AN, Colombia"}, {"latitude": 7.30192, "longitude": -75.07486, "type": "locality", "name": "La Tirana", "number": null, "postal_code": null, "street": null, "confidence": 1, "region": "Antioquia", "region_code": "AN", "county": "Anor\u00ed", "locality": "La Tirana", "administrative_area": null, "neighbourhood": null, "country": "Colombia", "country_code": "COL", "continent": "South America", "label": "La Tirana, AN, Colombia"}, {"latitude": 13.25, "longitude": -88.76667, "type": "locality", "name": "La Tirana", "number": null, "postal_code": null, "street": null, "confidence": 1, "region": "Usulut\u00e1n", "region_code": "US", "county": "Jiquilisco", "locality": "La Tirana", "administrative_area": null, "neighbourhood": null, "country": "El Salvador", "country_code": "SLV", "continent": "North America", "label": "La Tirana, US, El Salvador"}, {"latitude": 34.23179, "longitude": 73.23905, "type": "locality", "name": "Tarana", "number": null, "postal_code": null, "street": null, "confidence": 1, "region": null, "region_code": null, "county": "Abbottabad", "locality": "Tarana", "administrative_area": null, "neighbourhood": null, "country": "Pakistan", "country_code": "PAK", "continent": "Asia", "label": "Tarana, Pakistan"}, {"latitude": -20.339476, "longitude": -69.65332, "type": "locality", "name": "La Tirana", "number": null, "postal_code": null, "street": null, "confidence": 1, "region": "De Tarapaca", "region_code": "TP", "county": "Tamarugal", "locality": "La Tirana", "administrative_area": null, "neighbourhood": null, "country": "Chile", "country_code": "CHL", "continent": "South America", "label": "La Tirana, TP, Chile"}]}, "Seville": {"data": [{"latitude": 37.383606, "longitude": -5.97997, "type": "locality", "name": "Seville", "number": null, "postal_code": null, "street": null, "confidence": 0.6, "region": "Seville", "region_code": "AN", "county": null, "locality": "Seville", "administrative_area": "Seville", "neighbourhood": null, "country": "Spain", "country_code": "ESP", "continent": "Europe", "label": "Seville, Spain"}, {"latitude": 9.71667, "longitude": 124.03333, "type": "localadmin", "name": "Sevilla", "number": null, "postal_code": null, "street": null, "confidence": 0.6, "region": "Bohol", "region_code": "BO", "county": "Sevilla", "locality": null, "administrative_area": "Sevilla", "neighbourhood": null, "country": "Philippines", "country_code": "PHL", "continent": "Asia", "label": "Sevilla, BO, Philippines"}, {"latitude": 48.63387, "longitude": -112.53367, "type": "locality", "name": "Sundance", "number": null, "postal_code": null, "street": null, "confidence": 0.6, "region": "Montana", "region_code": "MT", "county": "Glacier County", "locality": "Sundance", "administrative_area": null, "neighbourhood": null, "country": "United States", "country_code": "USA", "continent": "North America", "label": "Sundance, MT, USA"}, {"latitude": 18.44269, "longitude": -77.22104, "type": "locality", "name": "Seville", "number": null, "postal_code": null, "street": null, "confidence": 0.6, "region": "Saint Ann", "region_code": "SN", "county": null, "locality": "Seville", "administrative_area": null, "neighbourhood": null, "country": "Jamaica", "country_code": "JAM", "continent": "North America", "label": "Seville, SN, Jamaica"}, {"latitude": 40.4856, "longitude": -90.34374, "type": "locality", "name": "Seville", "number": null, "postal_code": null, "street": null, "confidence": 0.6, "region": "Illinois", "region_code": "IL", "county": "Fulton County", "locality": "Seville", "administrative_area": "Harris Township", "neighbourhood": null, "country": "United States", "country_code": "USA", "continent": "North America", "label": "Seville, IL, USA"}, {"latitude": 42.76372, "longitude": -80.90007, "type": "locality", "name": "Seville", "number": null, "postal_code": null, "street": null, "confidence": 0.6, "region": "Ontario", "region_code": "ON", "county": "Elgin", "locality": "Seville", "administrative_area": null, "neighbourhood": null, "country": "Canada", "country_code": "CAN", "continent": "North America", "label": "Seville, ON, Canada"}, {"latitude": -22.994258, "longitude": 30.201267, "type": "locality", "name": "Seville", "number": null, "postal_code": null, "street": null, "confidence": 0.6, "region": "Limpopo", "region_code": "NP", "county": "Vhembe", "locality": "Seville", "administrative_area": null, "neighbourhood": null, "country": "South Africa", "country_code": "ZAF", "continent": "Africa", "label": "Seville, NP, South Africa"}, {"latitude": 41.016564, "longitude": -81.868433, "type": "locality", "name": "Seville", "number": null, "postal_code": null, "street": null, "confidence": 0.6, "region": "Ohio", "region_code": "OH", "county": "Medina County", "locality": "Seville", "administrative_area": "Seville Village Township", "neighbourhood": null, "country": "United States", "country_code": "USA", "continent": "North America", "label": "Seville, OH, USA"}, {"latitude": 29.336482, "longitude": -81.513496, "type": "locality", "name": "Seville", "number": null, "postal_code": null, "street": null, "confidence": 0.6, "region": "Florida", "region_code": "FL", "county": "Volusia County", "locality": "Seville", "administrative_area": null, "neighbourhood": null, "country": "United States", "country_code": "USA", "continent": "North America", "label": "Seville, FL, USA"}, {"latitude": 36.483111, "longitude": -119.226784, "type": "locality", "name": "Seville", "number": null, "postal_code": null, "street": null, "confidence": 0.6, "region": "California", "region_code": "CA", "county": "Tulare County", "locality": "Seville", "administrative_area": null, "neighbourhood": null, "country": "United States", "country_code": "USA", "continent": "North America", "label": "Seville, CA, USA"}]}, "M\u00e1laga": {"data": [{"latitude": 36.709737, "longitude": -4.462013, "type": "locality", "name": "Malaga", "number": null, "postal_code": null, "street": null, "confidence": 1, "region": "Malaga", "region_code": "AN", "county": null, "locality": "Malaga", "administrative_area": "M\u00e1laga", "neighbourhood": null, "country": "Spain", "country_code": "ESP", "continent": "Europe", "label": "Malaga, Spain"}, {"latitude": 32.223321, "longitude": -104.069563, "type": "locality", "name": "Malaga", "number": null, "postal_code": null, "street": null, "confidence": 1, "region": "New Mexico", "region_code": "NM", "county": "Eddy County", "locality": "Malaga", "administrative_area": null, "neighbourhood": null, "country": "United States", "country_code": "USA", "continent": "North America", "label": "Malaga, NM, USA"}, {"latitude": 6.69903, "longitude": -72.73233, "type": "locality", "name": "M\u00e1laga", "number": null, "postal_code": null, "street": null, "confidence": 1, "region": "Santander", "region_code": "ST", "county": "M\u00e1laga", "locality": "M\u00e1laga", "administrative_area": null, "neighbourhood": null, "country": "Colombia", "country_code": "COL", "continent": "South America", "label": "M\u00e1laga, ST, Colombia"}, {"latitude": 12.23686, "longitude": 124.37529, "type": "locality", "name": "Malaga", "number": null, "postal_code": null, "street": null, "confidence": 1, "region": "Samar", "region_code": "SM", "county": "Calbayog City", "locality": "Malaga", "administrative_area": null, "neighbourhood": null, "country": "Philippines", "country_code": "PHL", "continent": "Asia", "label": "Malaga, SM, Philippines"}, {"latitude": 12.7865, "longitude": 31.2995, "type": "locality", "name": "Mallaqat", "number": null, "postal_code": null, "street": null, "confidence": 1, "region": "Shamal Kurdufan", "region_code": "NK", "county": "Um Rwaba", "locality": "Mallaqat", "administrative_area": null, "neighbourhood": null, "country": "Sudan", "country_code": "SDN", "continent": "Africa", "label": "Mallaqat, NK, Sudan"}, {"latitude": 24.15663, "longitude": -104.49899, "type": "locality", "name": "Malaga", "number": null, "postal_code": null, "street": null, "confidence": 1, "region": "Durango", "region_code": "DUR", "county": "Durango", "locality": "Malaga", "administrative_area": null, "neighbourhood": null, "country": "Mexico", "country_code": "MEX", "continent": "North America", "label": "Malaga, DUR, Mexico"}, {"latitude": 9.7319, "longitude": 123.1518, "type": "locality", "name": "Maralag", "number": null, "postal_code": null, "street": null, "confidence": 1, "region": "Negros Oriental", "region_code": "NR", "county": "Bindoy (payabon)", "locality": "Maralag", "administrative_area": null, "neighbourhood": null, "country": "Philippines", "country_code": "PHL", "continent": "Asia", "label": "Maralag, NR, Philippines"}, {"latitude": 3.975, "longitude": -76.32639, "type": "locality", "name": "Malaga", "number": null, "postal_code": null, "street": null, "confidence": 1, "region": "Valle del Cauca", "region_code": "VC", "county": "Yotoco", "locality": "Malaga", "administrative_area": null, "neighbourhood": null, "country": "Colombia", "country_code": "COL", "continent": "South America", "label": "Malaga, VC, Colombia"}, {"latitude": 47.37235, "longitude": -120.20118, "type": "locality", "name": "Malaga", "number": null, "postal_code": null, "street": null, "confidence": 1, "region": "Washington", "region_code": "WA", "county": "Chelan County", "locality": "Malaga", "administrative_area": null, "neighbourhood": null, "country": "United States", "country_code": "USA", "continent": "North America", "label": "Malaga, WA, USA"}, {"latitude": -5.33974, "longitude": 145.74706, "type": "locality", "name": "Malaga", "number": null, "postal_code": null, "street": null, "confidence": 1, "region": "Madang", "region_code": "MD", "county": "Madang", "locality": "Malaga", "administrative_area": null, "neighbourhood": null, "country": "Papua New Guinea", "country_code": "PNG", "continent": "Oceania", "label": "Malaga, MD, Papua New Guinea"}]}, "Timisoara": {"data": [{"latitude": 45.743089, "longitude": 21.222152, "type": "locality", "name": "Timi\u0219oara", "number": null, "postal_code": null, "street": null, "confidence": 1, "region": "Timis", "region_code": "TM", "county": null, "locality": "Timi\u0219oara", "administrative_area": null, "neighbourhood": null, "country": "Romania", "country_code": "ROU", "continent": "Europe", "label": "Timi\u0219oara, TM, Romania"}]}, "Skopje": {"data": [{"latitude": 42.00122, "longitude": 21.42878, "type": "locality", "name": "Skopje", "number": null, "postal_code": null, "street": null, "confidence": 1, "region": "Centar Municipality", "region_code": "CE", "county": null, "locality": "Skopje", "administrative_area": null, "neighbourhood": null, "country": "Macedonia", "country_code": "MKD", "continent": "Europe", "label": "Skopje, CE, Macedonia"}, {"latitude": 42, "longitude": 21.41667, "type": "localadmin", "name": "Skopje", "number": null, "postal_code": null, "street": null, "confidence": 1, "region": "Centar Municipality", "region_code": "CE", "county": null, "locality": null, "administrative_area": "Skopje", "neighbourhood": null, "country": "Macedonia", "country_code": "MKD", "continent": "Europe", "label": "Skopje, CE, Macedonia"}, {"latitude": 41.905046, "longitude": 21.695855, "type": "region", "name": "Petrovec Municipality", "number": null, "postal_code": null, "street": null, "confidence": 0.3, "region": "Petrovec Municipality", "region_code": "PE", "county": null, "locality": null, "administrative_area": null, "neighbourhood": null, "country": "Macedonia", "country_code": "MKD", "continent": "Europe", "label": "Petrovec Municipality, Macedonia"}]}, "Palermo": {"data": [{"latitude": 38.128635, "longitude": 13.334865, "type": "locality", "name": "Palermo", "number": null, "postal_code": null, "street": null, "confidence": 1, "region": "Palermo", "region_code": "PA", "county": null, "locality": "Palermo", "administrative_area": "Palermo", "neighbourhood": null, "country": "Italy", "country_code": "ITA", "continent": "Europe", "label": "Palermo, PA, Italy"}, {"latitude": -34.573855, "longitude": -58.4219, "type": "neighbourhood", "name": "Palermo", "number": null, "postal_code": null, "street": null, "confidence": 0.6, "region": "Autonomous City of Buenos Aires", "region_code": "CF", "county": null, "locality": "Buenos Aires", "administrative_area": null, "neighbourhood": "Palermo", "country": "Argentina", "country_code": "ARG", "continent": "South America", "label": "Palermo, Buenos Aires, CF, Argentina"}, {"latitude": 2.89167, "longitude": -75.4375, "type": "locality", "name": "Palermo", "number": null, "postal_code": null, "street": null, "confidence": 1, "region": "Huila", "region_code": "HU", "county": "Palermo", "locality": "Palermo", "administrative_area": null, "neighbourhood": null, "country": "Colombia", "country_code": "COL", "continent": "South America", "label": "Palermo, HU, Colombia"}, {"latitude": 39.430669, "longitude": -121.524044, "type": "locality", "name": "Palermo", "number": null, "postal_code": null, "street": null, "confidence": 1, "region": "California", "region_code": "CA", "county": "Butte County", "locality": "Palermo", "administrative_area": null, "neighbourhood": null, "country": "United States", "country_code": "USA", "continent": "North America", "label": "Palermo, CA, USA"}, {"latitude": 9.25, "longitude": -74.48333, "type": "locality", "name": "Palermo", "number": null, "postal_code": null, "street": null, "confidence": 1, "region": "Bol\u00edvar", "region_code": "BL", "county": "Momp\u00f3s", "locality": "Palermo", "administrative_area": null, "neighbourhood": null, "country": "Colombia", "country_code": "COL", "continent": "South America", "label": "Palermo, BL, Colombia"}, {"latitude": 4.15872, "longitude": -73.81818, "type": "locality", "name": "Palermo", "number": null, "postal_code": null, "street": null, "confidence": 1, "region": "Meta", "region_code": "ME", "county": "Acac\u00edas", "locality": "Palermo", "administrative_area": null, "neighbourhood": null, "country": "Colombia", "country_code": "COL", "continent": "South America", "label": "Palermo, ME, Colombia"}, {"latitude": 40.06306, "longitude": 19.79278, "type": "locality", "name": "Palermo", "number": null, "postal_code": null, "street": null, "confidence": 1, "region": "Vlor\u00eb", "region_code": "VR", "county": "Himar\u00eb", "locality": "Palermo", "administrative_area": null, "neighbourhood": null, "country": "Albania", "country_code": "ALB", "continent": "Europe", "label": "Palermo, VR, Albania"}, {"latitude": 29.10133, "longitude": -111.73093, "type": "locality", "name": "Palermo", "number": null, "postal_code": null, "street": null, "confidence": 1, "region": "Sonora", "region_code": "SON", "county": "Hermosillo", "locality": "Palermo", "administrative_area": null, "neighbourhood": null, "country": "Mexico", "country_code": "MEX", "continent": "North America", "label": "Palermo, SON, Mexico"}, {"latitude": 5.19556, "longitude": -75.62972, "type": "locality", "name": "Palermo", "number": null, "postal_code": null, "street": null, "confidence": 1, "region": "Caldas", "region_code": "CL", "county": "Neira", "locality": "Palermo", "administrative_area": null, "neighbourhood": null, "country": "Colombia", "country_code": "COL", "continent": "South America", "label": "Palermo, CL, Colombia"}, {"latitude": -1.86667, "longitude": -79.8, "type": "locality", "name": "Palermo", "number": null, "postal_code": null, "street": null, "confidence": 1, "region": "Guayas", "region_code": "GY", "county": "Samborond\u00f3n", "locality": "Palermo", "administrative_area": null, "neighbourhood": null, "country": "Ecuador", "country_code": "ECU", "continent": "South America", "label": "Palermo, GY, Ecuador"}]}, "Tel Aviv": {"data": [{"latitude": 32.066455, "longitude": 34.783553, "type": "locality", "name": "Tel Aviv", "number": null, "postal_code": null, "street": null, "confidence": 1, "region": "Tel Aviv", "region_code": "TA", "county": "Tel Aviv", "locality": "Tel Aviv", "administrative_area": null, "neighbourhood": null, "country": "Israel", "country_code": "ISR", "continent": "Asia", "label": "Tel Aviv, Israel"}, {"latitude": 32.066947, "longitude": 34.766268, "type": "neighbourhood", "name": "Tell Afif", "number": null, "postal_code": null, "street": null, "confidence": 0.6, "region": "Tel Aviv", "region_code": "TA", "county": "Tel Aviv", "locality": "Tel Aviv", "administrative_area": null, "neighbourhood": "Tell Afif", "country": "Israel", "country_code": "ISR", "continent": "Asia", "label": "Tell Afif, Tel Aviv, Israel"}]}, "Tenerife": {"data": [{"latitude": 28.46824, "longitude": -16.25462, "type": "locality", "name": "Santa Cruz de Tenerife", "number": null, "postal_code": null, "street": null, "confidence": 1, "region": "Santa Cruz de Tenerife", "region_code": "CN", "county": null, "locality": "Santa Cruz de Tenerife", "administrative_area": "Santa Cruz de Tenerife", "neighbourhood": null, "country": "Spain", "country_code": "ESP", "continent": "Europe", "label": "Santa Cruz de Tenerife, Spain"}, {"latitude": 28.462493, "longitude": -16.261104, "type": "locality", "name": "Sta Cruz", "number": null, "postal_code": null, "street": null, "confidence": 1, "region": "Santa Cruz de Tenerife", "region_code": "CN", "county": null, "locality": "Sta Cruz", "administrative_area": "Santa Cruz de Tenerife", "neighbourhood": null, "country": "Spain", "country_code": "ESP", "continent": "Europe", "label": "Sta Cruz, CN, Spain"}, {"latitude": 9.90093, "longitude": -74.85985, "type": "locality", "name": "Tenerife", "number": null, "postal_code": null, "street": null, "confidence": 1, "region": "Magdalena", "region_code": "MA", "county": "Tenerife", "locality": "Tenerife", "administrative_area": null, "neighbourhood": null, "country": "Colombia", "country_code": "COL", "continent": "South America", "label": "Tenerife, MA, Colombia"}, {"latitude": 10.111726, "longitude": -74.68147, "type": "county", "name": "Zapay\u00e1n", "number": null, "postal_code": null, "street": null, "confidence": 0.4, "region": "Magdalena", "region_code": "MA", "county": "Zapay\u00e1n", "locality": null, "administrative_area": null, "neighbourhood": null, "country": "Colombia", "country_code": "COL", "continent": "South America", "label": "Zapay\u00e1n, MA, Colombia"}, {"latitude": 8.66694, "longitude": -76.10917, "type": "locality", "name": "Tenerife", "number": null, "postal_code": null, "street": null, "confidence": 1, "region": "C\u00f3rdoba", "region_code": "CO", "county": "Monter\u00eda", "locality": "Tenerife", "administrative_area": null, "neighbourhood": null, "country": "Colombia", "country_code": "COL", "continent": "South America", "label": "Tenerife, CO, Colombia"}, {"latitude": 8.11931, "longitude": -71.58472, "type": "locality", "name": "Tenerife", "number": null, "postal_code": null, "street": null, "confidence": 1, "region": "M\u00e9rida", "region_code": "ME", "county": "Arzobispo Chac\u00f3n", "locality": "Tenerife", "administrative_area": null, "neighbourhood": null, "country": "Venezuela", "country_code": "VEN", "continent": "South America", "label": "Tenerife, ME, Venezuela"}, {"latitude": 3.72611, "longitude": -76.07389, "type": "locality", "name": "Tenerife", "number": null, "postal_code": null, "street": null, "confidence": 1, "region": "Valle del Cauca", "region_code": "VC", "county": "El Cerrito", "locality": "Tenerife", "administrative_area": null, "neighbourhood": null, "country": "Colombia", "country_code": "COL", "continent": "South America", "label": "Tenerife, VC, Colombia"}, {"latitude": 5.28333, "longitude": -73.81667, "type": "locality", "name": "Tenerife", "number": null, "postal_code": null, "street": null, "confidence": 1, "region": "Cundinamarca", "region_code": "CU", "county": "Ubat\u00e9", "locality": "Tenerife", "administrative_area": null, "neighbourhood": null, "country": "Colombia", "country_code": "COL", "continent": "South America", "label": "Tenerife, CU, Colombia"}, {"latitude": -27.459524, "longitude": 153.04937, "type": "locality", "name": "Teneriffe", "number": null, "postal_code": null, "street": null, "confidence": 1, "region": "Queensland", "region_code": "QLD", "county": "Brisbane", "locality": "Teneriffe", "administrative_area": "Teneriffe", "neighbourhood": null, "country": "Australia", "country_code": "AUS", "continent": "Oceania", "label": "Teneriffe, QLD, Australia"}]}, "Edinburgh": {"data": [{"latitude": 55.929742, "longitude": -3.306716, "type": "localadmin", "name": "City of Edinburgh", "number": null, "postal_code": null, "street": null, "confidence": 1, "region": "City of Edinburgh", "region_code": null, "county": "City of Edinburgh", "locality": null, "administrative_area": "City of Edinburgh", "neighbourhood": null, "country": "United Kingdom", "country_code": "GBR", "continent": "Europe", "label": "City of Edinburgh, Scotland, United Kingdom"}, {"latitude": 55.944321, "longitude": -3.242511, "type": "locality", "name": "Edinburgh", "number": null, "postal_code": null, "street": null, "confidence": 1, "region": "City of Edinburgh", "region_code": null, "county": "City of Edinburgh", "locality": "Edinburgh", "administrative_area": "City of Edinburgh", "neighbourhood": null, "country": "United Kingdom", "country_code": "GBR", "continent": "Europe", "label": "Edinburgh, Scotland, United Kingdom"}, {"latitude": 40.37365, "longitude": -92.18463, "type": "locality", "name": "Edinburg", "number": null, "postal_code": null, "street": null, "confidence": 1, "region": "Missouri", "region_code": "MO", "county": "Scotland County", "locality": "Edinburg", "administrative_area": "Tobin Township", "neighbourhood": null, "country": "United States", "country_code": "USA", "continent": "North America", "label": "Edinburg, MO, USA"}, {"latitude": 34.90572, "longitude": -79.31004, "type": "locality", "name": "Edinburgh", "number": null, "postal_code": null, "street": null, "confidence": 1, "region": "North Carolina", "region_code": "NC", "county": "Hoke County", "locality": "Edinburgh", "administrative_area": null, "neighbourhood": null, "country": "United States", "country_code": "USA", "continent": "North America", "label": "Edinburgh, NC, USA"}, {"latitude": 34.08515, "longitude": -80.94842, "type": "locality", "name": "Edinburgh", "number": null, "postal_code": null, "street": null, "confidence": 1, "region": "South Carolina", "region_code": "SC", "county": "Richland County", "locality": "Edinburgh", "administrative_area": null, "neighbourhood": null, "country": "United States", "country_code": "USA", "continent": "North America", "label": "Edinburgh, SC, USA"}, {"latitude": 32.7993, "longitude": -89.33618, "type": "locality", "name": "Edinburg", "number": null, "postal_code": null, "street": null, "confidence": 1, "region": "Mississippi", "region_code": "MS", "county": "Leake County", "locality": "Edinburg", "administrative_area": null, "neighbourhood": null, "country": "United States", "country_code": "USA", "continent": "North America", "label": "Edinburg, MS, USA"}, {"latitude": 40.75533, "longitude": -81.84403, "type": "locality", "name": "Edinburgh", "number": null, "postal_code": null, "street": null, "confidence": 1, "region": "Ohio", "region_code": "OH", "county": "Wayne County", "locality": "Edinburgh", "administrative_area": "East Union Township", "neighbourhood": null, "country": "United States", "country_code": "USA", "continent": "North America", "label": "Edinburgh, OH, USA"}, {"latitude": 39.1802, "longitude": -77.1452, "type": "locality", "name": "Edinburgh", "number": null, "postal_code": null, "street": null, "confidence": 1, "region": null, "region_code": null, "county": null, "locality": "Edinburgh", "administrative_area": null, "neighbourhood": null, "country": "United States", "country_code": "USA", "continent": null, "label": "Edinburgh, USA"}, {"latitude": 10.50091, "longitude": -61.40976, "type": "locality", "name": "Edinburgh", "number": null, "postal_code": null, "street": null, "confidence": 1, "region": null, "region_code": null, "county": null, "locality": "Edinburgh", "administrative_area": null, "neighbourhood": null, "country": "Trinidad and Tobago", "country_code": "TTO", "continent": null, "label": "Edinburgh, Trinidad and Tobago"}, {"latitude": 39.658382, "longitude": -89.389934, "type": "locality", "name": "Edinburg", "number": null, "postal_code": null, "street": null, "confidence": 1, "region": "Illinois", "region_code": "IL", "county": "Christian County", "locality": "Edinburg", "administrative_area": "Buckhart Township", "neighbourhood": null, "country": "United States", "country_code": "USA", "continent": "North America", "label": "Edinburg, IL, USA"}]}, "Poznan": {"data": [{"latitude": 52.396172, "longitude": 16.916073, "type": "locality", "name": "Poznan", "number": null, "postal_code": null, "street": null, "confidence": 1, "region": "Greater Poland", "region_code": "WP", "county": "Loredan Popa", "locality": "Poznan", "administrative_area": "Pozna\u0144", "neighbourhood": null, "country": "Poland", "country_code": "POL", "continent": "Europe", "label": "Poznan, WP, Poland"}, {"latitude": 52.413528, "longitude": 16.923085, "type": "county", "name": "Loredan Popa", "number": null, "postal_code": null, "street": null, "confidence": 0.4, "region": "Greater Poland", "region_code": "WP", "county": "Loredan Popa", "locality": null, "administrative_area": null, "neighbourhood": null, "country": "Poland", "country_code": "POL", "continent": "Europe", "label": "Loredan Popa, WP, Poland"}, {"latitude": 53.31667, "longitude": 33.43333, "type": "locality", "name": "Poznan'", "number": null, "postal_code": null, "street": null, "confidence": 1, "region": "Bryansk", "region_code": "BR", "county": "Zhirjatinskiy", "locality": "Poznan'", "administrative_area": null, "neighbourhood": null, "country": "Russia", "country_code": "RUS", "continent": "Europe", "label": "Poznan', BR, Russia"}, {"latitude": 51.67709, "longitude": 22.30307, "type": "locality", "name": "Poznan", "number": null, "postal_code": null, "street": null, "confidence": 1, "region": "Lubelskie", "region_code": "LU", "county": "\u0141ukowski", "locality": "Poznan", "administrative_area": "Serokomla", "neighbourhood": null, "country": "Poland", "country_code": "POL", "continent": "Europe", "label": "Poznan, LU, Poland"}, {"latitude": 41.51977, "longitude": -81.63374, "type": "locality", "name": "Poznan", "number": null, "postal_code": null, "street": null, "confidence": 1, "region": "Ohio", "region_code": "OH", "county": "Cuyahoga County", "locality": "Poznan", "administrative_area": "Cleveland", "neighbourhood": null, "country": "United States", "country_code": "USA", "continent": "North America", "label": "Poznan, OH, USA"}, {"latitude": 51.595687, "longitude": 27.467063, "type": "locality", "name": "\u041f\u043e\u0437\u043d\u0430\u043d\u044c", "number": null, "postal_code": null, "street": null, "confidence": 1, "region": "Rivne", "region_code": "RV", "county": "Rokytnivs'kyi", "locality": "\u041f\u043e\u0437\u043d\u0430\u043d\u044c", "administrative_area": null, "neighbourhood": null, "country": "Ukraine", "country_code": "UKR", "continent": "Europe", "label": "\u041f\u043e\u0437\u043d\u0430\u043d\u044c, RV, Ukraine"}]}, "Prague": {"data": [{"latitude": 50.06694, "longitude": 14.460249, "type": "locality", "name": "Prague", "number": null, "postal_code": null, "street": null, "confidence": 1, "region": "Prague", "region_code": "PM", "county": null, "locality": "Prague", "administrative_area": null, "neighbourhood": null, "country": "Czechia", "country_code": "CZE", "continent": "Europe", "label": "Prague, Czechia"}, {"latitude": 34.28676, "longitude": -92.28071, "type": "locality", "name": "Prague", "number": null, "postal_code": null, "street": null, "confidence": 1, "region": "Arkansas", "region_code": "AR", "county": "Grant County", "locality": "Prague", "administrative_area": null, "neighbourhood": null, "country": "United States", "country_code": "USA", "continent": "North America", "label": "Prague, AR, USA"}, {"latitude": 35.488426, "longitude": -96.686522, "type": "locality", "name": "Prague", "number": null, "postal_code": null, "street": null, "confidence": 1, "region": "Oklahoma", "region_code": "OK", "county": "Lincoln County", "locality": "Prague", "administrative_area": null, "neighbourhood": null, "country": "United States", "country_code": "USA", "continent": "North America", "label": "Prague, OK, USA"}, {"latitude": 41.310504, "longitude": -96.808034, "type": "locality", "name": "Prague", "number": null, "postal_code": null, "street": null, "confidence": 1, "region": "Nebraska", "region_code": "NE", "county": "Saunders County", "locality": "Prague", "administrative_area": "Chester Township", "neighbourhood": null, "country": "United States", "country_code": "USA", "continent": "North America", "label": "Prague, NE, USA"}]}, "Frankfurt": {"data": [{"latitude": 50.041821, "longitude": 8.584764, "type": "locality", "name": "Frankfurt", "number": null, "postal_code": null, "street": null, "confidence": 1, "region": "Hesse", "region_code": "HE", "county": "Frankfurt", "locality": "Frankfurt", "administrative_area": "Frankfurt am Main", "neighbourhood": null, "country": "Germany", "country_code": "DEU", "continent": "Europe", "label": "Frankfurt, HE, Germany"}, {"latitude": 52.345365, "longitude": 14.529218, "type": "locality", "name": "Frankfurt", "number": null, "postal_code": null, "street": null, "confidence": 1, "region": "Brandenburg", "region_code": "BB", "county": "Frankfurt", "locality": "Frankfurt", "administrative_area": "Frankfurt (Oder)", "neighbourhood": null, "country": "Germany", "country_code": "DEU", "continent": "Europe", "label": "Frankfurt, BB, Germany"}, {"latitude": 52.329664, "longitude": 14.498635, "type": "localadmin", "name": "Frankfurt (Oder)", "number": null, "postal_code": null, "street": null, "confidence": 1, "region": "Brandenburg", "region_code": "BB", "county": "Frankfurt", "locality": null, "administrative_area": "Frankfurt (Oder)", "neighbourhood": null, "country": "Germany", "country_code": "DEU", "continent": "Europe", "label": "Frankfurt (Oder), BB, Germany"}, {"latitude": 49.68333, "longitude": 10.53333, "type": "neighbourhood", "name": "Frankfurt", "number": null, "postal_code": null, "street": null, "confidence": 0.6, "region": "Bavaria", "region_code": "BY", "county": "Neustadt an der Aisch-Bad Windsheim", "locality": "Markt Taschendorf", "administrative_area": "Scheinfeld", "neighbourhood": "Frankfurt", "country": "Germany", "country_code": "DEU", "continent": "Europe", "label": "Frankfurt, Markt Taschendorf, BY, Germany"}]}, "Oslo": {"data": [{"latitude": 59.974453, "longitude": 10.735045, "type": "locality", "name": "Oslo", "number": null, "postal_code": null, "street": null, "confidence": 1, "region": "Oslo", "region_code": "OS", "county": null, "locality": "Oslo", "administrative_area": "Oslo", "neighbourhood": null, "country": "Norway", "country_code": "NOR", "continent": "Europe", "label": "Oslo, Norway"}, {"latitude": 43.89219, "longitude": -92.73852, "type": "locality", "name": "Oslo", "number": null, "postal_code": null, "street": null, "confidence": 1, "region": "Minnesota", "region_code": "MN", "county": "Dodge County", "locality": "Oslo", "administrative_area": "Vernon Township", "neighbourhood": null, "country": "United States", "country_code": "USA", "continent": "North America", "label": "Oslo, MN, USA"}, {"latitude": -11.78219, "longitude": -75.24206, "type": "locality", "name": "Oslo", "number": null, "postal_code": null, "street": null, "confidence": 1, "region": "Junin", "region_code": "JU", "county": "Concepci\u00f3n", "locality": "Oslo", "administrative_area": null, "neighbourhood": null, "country": "Peru", "country_code": "PER", "continent": "South America", "label": "Oslo, JU, Peru"}, {"latitude": 27.5867, "longitude": -80.38033, "type": "locality", "name": "Oslo", "number": null, "postal_code": null, "street": null, "confidence": 1, "region": "Florida", "region_code": "FL", "county": "Indian River County", "locality": "Oslo", "administrative_area": null, "neighbourhood": null, "country": "United States", "country_code": "USA", "continent": "North America", "label": "Oslo, FL, USA"}, {"latitude": 48.19498, "longitude": -97.132444, "type": "locality", "name": "Oslo", "number": null, "postal_code": null, "street": null, "confidence": 1, "region": "Minnesota", "region_code": "MN", "county": "Marshall County", "locality": "Oslo", "administrative_area": "Oslo", "neighbourhood": null, "country": "United States", "country_code": "USA", "continent": "North America", "label": "Oslo, MN, USA"}, {"latitude": 44.239253, "longitude": -96.948628, "type": "localadmin", "name": "Oslo Township", "number": null, "postal_code": null, "street": null, "confidence": 1, "region": "South Dakota", "region_code": "SD", "county": "Brookings County", "locality": null, "administrative_area": "Oslo Township", "neighbourhood": null, "country": "United States", "country_code": "USA", "continent": "North America", "label": "Oslo Township, SD, USA"}]}, "Cagliari": {"data": [{"latitude": 39.23253, "longitude": 9.110622, "type": "locality", "name": "Cagliari", "number": null, "postal_code": null, "street": null, "confidence": 1, "region": "Cagliari", "region_code": "CA", "county": null, "locality": "Cagliari", "administrative_area": "Cagliari", "neighbourhood": null, "country": "Italy", "country_code": "ITA", "continent": "Europe", "label": "Cagliari, CA, Italy"}, {"latitude": 46.37478, "longitude": 10.88171, "type": "locality", "name": "Cagliari", "number": null, "postal_code": null, "street": null, "confidence": 1, "region": "Trento", "region_code": "TN", "county": null, "locality": "Cagliari", "administrative_area": "Rabbi", "neighbourhood": null, "country": "Italy", "country_code": "ITA", "continent": "Europe", "label": "Cagliari, TN, Italy"}]}}